,Fuel Type Code,Station Name,City,State,ZIP,Latitude,Longitude,ID,E85 Blender Pump,Points,County
0,E85,Sioux Valley Co-op - Cenex,Watertown,SD,57201,44.904113,-97.130798,1447,True,"(-97.130798, 44.904113)",Codington
1,E85,F&M Co-op Oil,Madison,SD,57042,44.007690000000004,-97.146785,1451,True,"(-97.146785, 44.007690000000004)",Lake
2,E85,Kum & Go #113,Ames,IA,50010,42.034894,-93.575925,1470,True,"(-93.575925, 42.034894)",Story
3,E85,Texaco - Highway 34 Truckstop,West Burlington,IA,52655,40.825493,-91.20835500000001,1479,False,"(-91.20835500000001, 40.825493)",Des Moines
4,E85,Conoco - Convenient Food Mart,Jefferson City,MO,65109,38.588189,-92.255887,1480,False,"(-92.255887, 38.588189)",Cole
5,E85,Flying J,Rapid City,SD,57709,44.103769,-103.14969,1487,False,"(-103.14969, 44.103769)",Pennington
6,E85,Evergreen FS Farmtown,Bloomington,IL,61704,40.453057,-88.96696,5564,False,"(-88.96696, 40.453057)",McLean
7,E85,Kwik Trip #334,Mankato,MN,56001,44.187909999999995,-94.012676,6219,False,"(-94.012676, 44.187909999999995)",Blue Earth
8,E85,Kwik Trip #382,Rochester,MN,55901,44.066369,-92.50330699999999,7102,False,"(-92.50330699999999, 44.066369)",Olmsted
9,E85,Phillips 66 - Sandy's,Rockford,IL,61109,42.223132,-89.027541,7115,False,"(-89.027541, 42.223132)",Winnebago
10,E85,Bobby & Steve's Mobil,Minneapolis,MN,55415,44.974073,-93.251026,7116,False,"(-93.251026, 44.974073)",Hennepin
11,E85,Conoco - Convenient Mart,Jefferson City,MO,65101,38.549973,-92.149117,13039,True,"(-92.149117, 38.549973)",Cole
12,E85,Petro Serve USA - Farmers Union Oil Co,Bismarck,ND,58501,46.823993,-100.774849,13049,True,"(-100.774849, 46.823993)",Burleigh
13,E85,Bobby & Steve's Mobil,Columbia Heights,MN,55421,45.036651,-93.246789,16239,False,"(-93.246789, 45.036651)",Anoka
14,E85,Holiday Stationstore #73,Bloomington,MN,55420,44.851239,-93.287848,16241,False,"(-93.287848, 44.851239)",Hennepin
15,E85,Jerry's U-Save Conoco,Morris,MN,56267,45.325268,-95.580093,18964,False,"(-95.580093, 45.325268)",Swift
16,E85,Cenex - Glacial Plains Co-op,Benson,MN,56215,45.314149,-95.597034,18967,True,"(-95.597034, 45.314149)",Swift
17,E85,Kwik Trip #445,Austin,MN,55912,43.678937,-92.980113,18971,False,"(-92.980113, 43.678937)",Mower
18,E85,Holiday Stationstore #259,Coon Rapids,MN,55448,45.152809999999995,-93.27225899999999,18972,False,"(-93.27225899999999, 45.152809999999995)",Anoka
19,E85,Holiday Stationstore #292,Brooklyn Center,MN,55430,45.074958,-93.28788399999999,18976,False,"(-93.28788399999999, 45.074958)",Hennepin
20,E85,Holiday Stationstore #4,St. Paul,MN,55106,44.962858000000004,-93.03913,18980,False,"(-93.03913, 44.962858000000004)",Ramsey
21,E85,Holiday Stationstore #43,St. Paul,MN,55104,44.95859,-93.166635,18982,False,"(-93.166635, 44.95859)",Ramsey
22,E85,Holiday Stationstore #12,Shorewood,MN,55331,44.907799,-93.53193900000001,18983,False,"(-93.53193900000001, 44.907799)",Hennepin
23,E85,Holiday Stationstore #83,Shakopee,MN,55379,44.798999,-93.521407,18985,False,"(-93.521407, 44.798999)",Scott
24,E85,Holiday Stationstore #245,Bloomington,MN,55437,44.807342999999996,-93.351905,18986,False,"(-93.351905, 44.807342999999996)",Hennepin
25,E85,Holiday Stationstore #247,Eagan,MN,55122,44.826776,-93.16811899999999,18987,False,"(-93.16811899999999, 44.826776)",Dakota
26,E85,Kwik Trip #662,Eagan,MN,55121,44.843646,-93.123553,18988,False,"(-93.123553, 44.843646)",Dakota
27,E85,Holiday Stationstore Mega Stop #3552,Lakeville,MN,55044,44.643244,-93.289764,18989,False,"(-93.289764, 44.643244)",Dakota
28,E85,Cenex - Belgrade Co-op,Belgrade,MN,56312,45.452715000000005,-95.004701,19150,True,"(-95.004701, 45.452715000000005)",Stearns
29,E85,BP - Expressway,Luverne,MN,56156,43.640938,-96.213763,19153,True,"(-96.213763, 43.640938)",Rock
30,E85,Cenex - Farmers Co-op Elevator,Buffalo Lake,MN,55314,44.737557,-94.622302,20745,False,"(-94.622302, 44.737557)",Renville
31,E85,Cenex - Central Counties Co-op,Litchfield,MN,55355,45.121590999999995,-94.503642,20748,False,"(-94.503642, 45.121590999999995)",Meeker
32,E85,Citgo,Chicago,IL,60613,41.956159,-87.663596,20844,False,"(-87.663596, 41.956159)",Cook
33,E85,Kean Brothers Oil Co,Chicago,IL,60655,41.691997,-87.687613,20845,False,"(-87.687613, 41.691997)",Cook
34,E85,Cenex - Meadowland,Wabasso,MN,56293,44.39915,-95.258619,20867,True,"(-95.258619, 44.39915)",Redwood
35,E85,Cenex - Freeborn County Co-op,Albert Lea,MN,56007,43.649515,-93.36582299999999,20868,True,"(-93.36582299999999, 43.649515)",Freeborn
36,E85,Sinclair,Denver,CO,80209,39.711518,-104.987981,20899,False,"(-104.987981, 39.711518)",Denver
37,E85,Cenex - Farmers Co-op Oil Co,Sacred Heart,MN,56285,44.787403000000005,-95.341421,20986,True,"(-95.341421, 44.787403000000005)",Renville
38,E85,Cenex - Olivia,Olivia,MN,56277,44.776707,-94.994495,20987,True,"(-94.994495, 44.776707)",Renville
39,E85,Cenex C-Store,Granite Falls,MN,56241,44.806338000000004,-95.54527,20994,True,"(-95.54527, 44.806338000000004)",Yellow Medicine
40,E85,Cenex Convenience Store,Glenwood,MN,56334,45.646833,-95.37212199999999,21090,True,"(-95.37212199999999, 45.646833)",Pope
41,E85,Fort Meade Auto Center,Laurel,MD,20724,39.091377,-76.774898,21290,True,"(-76.774898, 39.091377)",Anne Arundel
42,E85,Cenex - Ag Plus Co-op,Minneota,MN,56264,44.558104,-95.985501,21444,True,"(-95.985501, 44.558104)",Lyon
43,E85,AgPlus Cenex,Marshall,MN,56258,44.442479999999996,-95.795705,21445,False,"(-95.795705, 44.442479999999996)",Lyon
44,E85,Cenex - Cottonwood Co-op Oil Co,Cottonwood,MN,56229,44.609778999999996,-95.671563,21446,True,"(-95.671563, 44.609778999999996)",Lyon
45,E85,Montgomery County Government - Gaithersburg Highway Fuel Site,Derwood,MD,20855,39.132781,-77.172278,21735,False,"(-77.172278, 39.132781)",Montgomery
46,E85,Acorn Petroleum,Pueblo,CO,81006,38.274654999999996,-104.496219,21741,False,"(-104.496219, 38.274654999999996)",Pueblo
47,E85,Breck Superpumper,Breckenridge,MN,56520,46.261969,-96.58752,21765,False,"(-96.58752, 46.261969)",Wilkin
48,E85,Walt's 66 Carwash,Willmar,MN,56201,45.111290000000004,-95.043137,21766,False,"(-95.043137, 45.111290000000004)",Kandiyohi
49,E85,Tobies Marathon,Hinckley,MN,55037,46.010739,-92.930058,21965,False,"(-92.930058, 46.010739)",Pine
50,E85,Country Corner Cenex,Graceville,MN,56240,45.571633,-96.431225,21976,True,"(-96.431225, 45.571633)",Big Stone
51,E85,Holiday Stationstore #335,Minneapolis,MN,55413,45.002254,-93.209326,21978,False,"(-93.209326, 45.002254)",Hennepin
52,E85,Cenex - Farmers Co-op Oil Co,Clara City,MN,56222,44.948469,-95.37276700000001,21993,True,"(-95.37276700000001, 44.948469)",Chippewa
53,E85,Country Pride Services,Windom,MN,56101,43.85564785,-95.11466968,21994,False,"(-95.11466968, 43.85564785)",Cottonwood
54,E85,Acorn Petroleum,Brush,CO,80723,40.2665,-103.621179,21996,False,"(-103.621179, 40.2665)",Morgan
55,E85,Pearson Fuels Depot,San Diego,CA,92105,32.754335,-117.107501,22617,False,"(-117.107501, 32.754335)",San Diego
56,E85,Kwik Shop #728,Maize,KS,67101,37.780218,-97.46252700000001,22620,False,"(-97.46252700000001, 37.780218)",Sedgwick
57,E85,Glencoe Co-op Association,Glencoe,MN,55336,44.768858,-94.157543,23311,True,"(-94.157543, 44.768858)",McLeod
58,E85,Holiday Stationstore #333,Lakeville,MN,55044,44.71696604,-93.21326579,23804,False,"(-93.21326579, 44.71696604)",Dakota
59,E85,West Park Travel Center,Huron,SD,57350,44.37030256,-98.25412687,23862,False,"(-98.25412687, 44.37030256)",Beadle
60,E85,BP - Becker's,Dwight,IL,60420,41.112992,-88.412481,24807,False,"(-88.412481, 41.112992)",Grundy
61,E85,Speedway #4419,St. Paul,MN,55105,44.940304,-93.13937800000001,25165,False,"(-93.13937800000001, 44.940304)",Ramsey
62,E85,Cenex - Freeborn County Co-op,Alden,MN,56009,43.664862,-93.579499,25461,True,"(-93.579499, 43.664862)",Freeborn
63,E85,Cenex General Store,Barnesville,MN,56514,46.659153,-96.420357,25462,False,"(-96.420357, 46.659153)",Clay
64,E85,212 One-Stop - Cenex,Danube,MN,56230,44.788644,-95.097083,25463,True,"(-95.097083, 44.788644)",Renville
65,E85,Cenex - Farmers Co-op Oil Co,Redwood Falls,MN,56283,44.541392,-95.090323,25465,False,"(-95.090323, 44.541392)",Redwood
66,E85,Casey's General Store,St. James,MN,56081,43.98108,-94.626508,25467,False,"(-94.626508, 43.98108)",Watonwan
67,E85,Tri-County Co-op Oil,Wheaton,MN,56296,45.80284,-96.4903,25468,True,"(-96.4903, 45.80284)",Traverse
68,E85,Season's Market - Holiday Stationstore #3535,Woodbury,MN,55125,44.93714,-92.932539,25469,False,"(-92.932539, 44.93714)",Washington
69,E85,Cenex - Cooperative Energy Co,Worthington,MN,56187,43.635546000000005,-95.59265699999999,25470,True,"(-95.59265699999999, 43.635546000000005)",Nobles
70,E85,Amigo Mart,Santa Fe,NM,87505,35.672836,-105.962093,25687,False,"(-105.962093, 35.672836)",Santa Fe
71,E85,Cenex - Consumers Co-op Oil Co,Clarkfield,MN,56223,44.791047999999996,-95.80823199999999,25977,False,"(-95.80823199999999, 44.791047999999996)",Yellow Medicine
72,E85,Stop-N-Go,Madison,WI,53711,43.046690999999996,-89.487121,26017,False,"(-89.487121, 43.046690999999996)",Dane
73,E85,First Co-op Association,Galva,IA,51020,42.477509999999995,-95.415962,26070,True,"(-95.415962, 42.477509999999995)",Ida
74,E85,Stinker Store #23,Boise,ID,83702,43.621472999999995,-116.21933899999999,26153,False,"(-116.21933899999999, 43.621472999999995)",Ada
75,E85,Break Time Convenience Store #3061,Marshall,MO,65340,39.1083276,-93.213185,26270,True,"(-93.213185, 39.1083276)",Saline
76,E85,Mobil On the Run,St. Charles,MO,63301,38.771119,-90.493562,26459,False,"(-90.493562, 38.771119)",St. Charles
77,E85,Anderson's,Spencer,IA,51301,43.144387,-95.151126,26519,True,"(-95.151126, 43.144387)",Clay
78,E85,Spinx #121,Greer,SC,29650,34.873697,-82.224577,26598,False,"(-82.224577, 34.873697)",Spartanburg
79,E85,Spinx #138,Greenville,SC,29605,34.788922,-82.416499,26599,False,"(-82.416499, 34.788922)",Greenville
80,E85,Casey's General Store,Hinton,IA,51024,42.627618,-96.291953,26660,True,"(-96.291953, 42.627618)",Plymouth
81,E85,Co-op Gas & Oil,Sioux Center,IA,51250,43.078307,-96.17629699999999,26665,True,"(-96.17629699999999, 43.078307)",Sioux
82,E85,Qik-n-EZ #62,Bloomington,IL,61704,40.458467999999996,-88.970711,26666,False,"(-88.970711, 40.458467999999996)",McLean
83,E85,Cenex - Freeborn County Co-op,Austin,MN,55912,43.668333000000004,-92.86850600000001,26667,True,"(-92.86850600000001, 43.668333000000004)",Mower
84,E85,Cenex - Ashby Equity Association,Ashby,MN,56309,46.09328,-95.8113,26668,True,"(-95.8113, 46.09328)",Grant
85,E85,Fuel 24,Taylorville,IL,62568,39.561728,-89.306125,26716,False,"(-89.306125, 39.561728)",Christian
86,E85,Qik-n-EZ #50,Springfield,IL,62702,39.839128,-89.633696,26757,False,"(-89.633696, 39.839128)",Sangamon
87,E85,Holiday Stationstore #414,West Fargo,ND,58078,46.862518,-96.879627,26841,False,"(-96.879627, 46.862518)",Cass
88,E85,Petro Serve USA - Farmers Union Oil Co,Fargo,ND,58103,46.876049,-96.844817,26842,True,"(-96.844817, 46.876049)",Cass
89,E85,Aurora Co-op - Service Center,Aurora,NE,68818,40.868195,-98.000376,26845,True,"(-98.000376, 40.868195)",Hamilton
90,E85,BP - Brookings,Brookings,SD,57006,44.310603,-96.763221,26850,True,"(-96.763221, 44.310603)",Brookings
91,E85,C-Express,Aberdeen,SD,57401,45.459416999999995,-98.455047,26851,True,"(-98.455047, 45.459416999999995)",Brown
92,E85,Mellette Travel Plaza,Mellette,SD,57461,45.1573,-98.43189699999999,26853,False,"(-98.43189699999999, 45.1573)",Spink
93,E85,Qik-n-EZ #53,Shelbyville,IL,62565,39.412428000000006,-88.806851,26865,False,"(-88.806851, 39.412428000000006)",Shelby
94,E85,Cenex Ampride - W&H Co-op,Humboldt,IA,50548,42.732541999999995,-94.227487,26978,True,"(-94.227487, 42.732541999999995)",Humboldt
95,E85,Road Ranger #237,Lombard,IL,60148,41.860475,-87.994817,27010,False,"(-87.994817, 41.860475)",DuPage
96,E85,Get N Go #2,Sioux Falls,SD,57104,43.544311,-96.74718399999999,27341,False,"(-96.74718399999999, 43.544311)",Minnehaha
97,E85,Get N Go #5,Sioux Falls,SD,57104,43.540539,-96.711735,27342,False,"(-96.711735, 43.540539)",Minnehaha
98,E85,Get N Go #12,Sioux Falls,SD,57108,43.500962,-96.708286,27344,False,"(-96.708286, 43.500962)",Minnehaha
99,E85,Get N Go #14,Sioux Falls,SD,57108,43.499307,-96.770227,27345,False,"(-96.770227, 43.499307)",Lincoln
100,E85,Get N Go #15,Sioux Falls,SD,57106,43.514540000000004,-96.81021,27346,False,"(-96.81021, 43.514540000000004)",Minnehaha
101,E85,Get N Go #16,Sioux Falls,SD,57106,43.524515,-96.774568,27347,False,"(-96.774568, 43.524515)",Minnehaha
102,E85,Phillips 66 - Apollo Mart,Bartonville,IL,61607,40.663940000000004,-89.679796,27348,False,"(-89.679796, 40.663940000000004)",Peoria
103,E85,MFA Oil Petro-Card 24,Centerville,IA,52544,40.720146,-92.867885,27349,False,"(-92.867885, 40.720146)",Appanoose
104,E85,Co-op Energy,Lake Park,IA,51347,43.450528999999996,-95.323911,27351,False,"(-95.323911, 43.450528999999996)",Dickinson
105,E85,Albion Knapp Mart,Albion,IL,62806,38.378522,-88.378522,27352,False,"(-88.378522, 38.378522)",Wayne
106,E85,Central City Knapp Mart,Centralia,IL,62801,38.547507,-89.130122,27354,False,"(-89.130122, 38.547507)",Marion
107,E85,Citgo - Cisne Knapp Mart,Cisne,IL,62823,38.515575,-88.434887,27355,True,"(-88.434887, 38.515575)",Wayne
108,E85,Knapp Mart - Clay City,Clay City,IL,62824,38.680794,-88.3541,27356,False,"(-88.3541, 38.680794)",Clay
109,E85,Pacific Pride - Morgan Distributing,Decatur,IL,62526,39.881124,-88.92349399999999,27357,False,"(-88.92349399999999, 39.881124)",Macon
110,E85,Cenex - Ampride C-Store,Ainsworth,NE,69210,42.549595000000004,-99.857214,27364,False,"(-99.857214, 42.549595000000004)",Brown
111,E85,Cenex - Farmers Union Supply Co,Beatrice,NE,68310,40.282424,-96.747265,27366,False,"(-96.747265, 40.282424)",Gage
112,E85,Phillips 66 - U-Stop,Lincoln,NE,68528,40.814276,-96.720691,27372,False,"(-96.720691, 40.814276)",Lancaster
113,E85,Airport Travel Center - Cenex,Aberdeen,SD,57401,45.459039000000004,-98.4244865,27379,False,"(-98.4244865, 45.459039000000004)",Brown
114,E85,DJ's Travel Center,Huron,SD,57350,44.371888,-98.175122,27382,False,"(-98.175122, 44.371888)",Beadle
115,E85,Cowboy Country Store,Pierre,SD,57501,44.37805,-100.31604200000001,27384,False,"(-100.31604200000001, 44.37805)",Hughes
116,E85,Canyon Lake Gas & Auto,Rapid City,SD,57702,44.066967,-103.285279,27385,True,"(-103.285279, 44.066967)",Pennington
117,E85,Appel's Quick Stop,Redfield,SD,57469,44.87543,-98.519856,27386,True,"(-98.519856, 44.87543)",Spink
118,E85,Break Time Convenience Store #3090,St. Joseph,MO,64506,39.769746999999995,-94.796717,27388,False,"(-94.796717, 39.769746999999995)",Buchanan
119,E85,Ag Plus Co-op,Canby,MN,56220,44.719282,-96.262962,27391,True,"(-96.262962, 44.719282)",Yellow Medicine
120,E85,Ampride Cenex - Crookston Fuel Oil,Crookston,MN,56716,47.766717,-96.628672,27395,True,"(-96.628672, 47.766717)",Polk
121,E85,Holiday Stationstore #3548,East Grand Forks,MN,56721,47.935106,-97.01938100000001,27396,False,"(-97.01938100000001, 47.935106)",Polk
122,E85,Hutchinson Co-op,Hutchinson,MN,55350,44.894193,-94.390271,27399,True,"(-94.390271, 44.894193)",McLeod
123,E85,Cenex - Paynesville Farmers Union Co-op Oil,Paynesville,MN,56362,45.380755,-94.708115,27404,True,"(-94.708115, 45.380755)",Stearns
124,E85,Perham Oasis,Perham,MN,56573,46.579101,-95.576231,27405,True,"(-95.576231, 46.579101)",Otter Tail
125,E85,MFA Oil Petro-Card 24,Moberly,MO,65270,39.432453,-92.4537,27416,False,"(-92.4537, 39.432453)",Randolph
126,E85,Qik-n-EZ #72,Normal,IL,61761,40.530365,-88.996595,27427,False,"(-88.996595, 40.530365)",McLean
127,E85,Qik-n-EZ #52,Pana,IL,62557,39.386204,-89.081528,27428,True,"(-89.081528, 39.386204)",Christian
128,E85,Fast Stop Fuel 24 - Princeton Gas,Princeton,IL,61356,41.382222999999996,-89.465298,27429,True,"(-89.465298, 41.382222999999996)",Bureau
129,E85,Salem Knapp Mart,Salem,IL,62881,38.623436,-88.945373,27431,True,"(-88.945373, 38.623436)",Marion
130,E85,Qik-n-EZ #55,Springfield,IL,62703,39.757093,-89.640412,27432,True,"(-89.640412, 39.757093)",Sangamon
131,E85,Qik-n-EZ #58,Springfield,IL,62704,39.800090999999995,-89.686464,27433,False,"(-89.686464, 39.800090999999995)",Sangamon
132,E85,Qik-n-EZ #61,Springfield,IL,62712,39.713243,-89.63798100000001,27434,False,"(-89.63798100000001, 39.713243)",Sangamon
133,E85,Cenex - Farmers Co-op Oil,Belview,MN,56214,44.605247,-95.329839,27442,True,"(-95.329839, 44.605247)",Redwood
134,E85,Roc One Stop,Harrisburg,IL,62946,37.741599,-88.530337,27445,False,"(-88.530337, 37.741599)",Saline
135,E85,Southern FS,Harrisburg,IL,62946,37.723427,-88.540554,27446,False,"(-88.540554, 37.723427)",Saline
136,E85,Lena Cenex at Noller's Food Pride - Sullivan's,Lena,IL,61048,42.371425,-89.82858900000001,27447,False,"(-89.82858900000001, 42.371425)",Stephenson
137,E85,Central Farmers Co-op,Salem,SD,57058,43.723819,-97.38934300000001,27574,True,"(-97.38934300000001, 43.723819)",McCook
138,E85,Citgo - Metropolis Knapp Mart,Metropolis,IL,62960,37.145598,-88.71731700000001,27582,False,"(-88.71731700000001, 37.145598)",Massac
139,E85,Nashville Knapp Mart - Citgo,Nashville,IL,62263,38.375797999999996,-89.371532,27583,False,"(-89.371532, 38.375797999999996)",Washington
140,E85,Citgo - Stewardson Knapp Mart,Stewardson,IL,62463,39.263708,-88.619175,27584,False,"(-88.619175, 39.263708)",Shelby
141,E85,Cenex,Detroit Lakes,MN,56501,46.825677,-95.831497,27589,False,"(-95.831497, 46.825677)",Becker
142,E85,Kwik Trip #443,Farmington,MN,55024,44.684312,-93.17615699999999,27590,False,"(-93.17615699999999, 44.684312)",Dakota
143,E85,Cenex - First Co-op Association,Jackson,MN,56143,43.628046999999995,-94.979777,27596,False,"(-94.979777, 43.628046999999995)",Jackson
144,E85,Kwik Trip #435,Owatonna,MN,55060,44.095886,-93.253784,27599,False,"(-93.253784, 44.095886)",Steele
145,E85,Sapp Bros Travel Center,Peru,IL,61354,41.366352,-89.15110200000001,27677,False,"(-89.15110200000001, 41.366352)",LaSalle
146,E85,Holiday Stationstore #306,Blaine,MN,55014,45.157352,-93.164039,27846,True,"(-93.164039, 45.157352)",Anoka
147,E85,Cenex - Lakefield Farmers Elevator,Lakefield,MN,56150,43.67505,-95.172187,27848,False,"(-95.172187, 43.67505)",Jackson
148,E85,Kwik Trip #438,Rochester,MN,55902,44.022175,-92.495979,27849,False,"(-92.495979, 44.022175)",Olmsted
149,E85,SeQuential Biofuels,Eugene,OR,97405,44.018404,-123.026223,27853,False,"(-123.026223, 44.018404)",Lane
150,E85,Martin's IGA - Midtown Fuels,Effingham,IL,62401,39.121525,-88.548013,27983,False,"(-88.548013, 39.121525)",Effingham
151,E85,Petersen Oil & Propane,Greenville,MI,48838,43.201365,-85.254098,27984,True,"(-85.254098, 43.201365)",Montcalm
152,E85,MFA Oil Petro-Card 24,Bernie,MO,63822,36.684336,-89.967056,27987,False,"(-89.967056, 36.684336)",Stoddard
153,E85,Cenex - Petro Serve USA #65,Casselton,ND,58012,46.899404,-97.212563,27989,True,"(-97.212563, 46.899404)",Cass
154,E85,Cenex - Petro Serve USA #87,Fargo,ND,58102,46.914777,-96.78690999999999,27990,True,"(-96.78690999999999, 46.914777)",Cass
155,E85,Spinx #130,Greenville,SC,29607,34.820121,-82.279666,27993,False,"(-82.279666, 34.820121)",Greenville
156,E85,Spinx #149,Columbia,SC,29206,34.042116,-80.939041,27999,False,"(-80.939041, 34.042116)",Richland
157,E85,Spinx #166,Greer,SC,29650,34.948657,-82.22520899999999,28000,False,"(-82.22520899999999, 34.948657)",Greenville
158,E85,Express Fuel Center,Benton,MO,63736,37.086162,-89.531988,28115,False,"(-89.531988, 37.086162)",Scott
159,E85,Donnelly Co-op,Donnelly,MN,56235,45.690934000000006,-96.012578,28202,True,"(-96.012578, 45.690934000000006)",Stevens
160,E85,Cenex - Community Co-op Oil Co,Faribault,MN,55021,44.29054,-93.26884,28203,True,"(-93.26884, 44.29054)",Rice
161,E85,Spinx #178,Travelers Rest,SC,29690,34.979913,-82.425596,28213,False,"(-82.425596, 34.979913)",Greenville
162,E85,Cork N Bottle,Yankton,SD,57078,42.88399457,-97.39667197,28217,False,"(-97.39667197, 42.88399457)",Yankton
163,E85,Joe's Junction #8 - Phillips 66,Trafalgar,IN,46181,39.41624960000001,-86.1581345,28220,True,"(-86.1581345, 39.41624960000001)",Johnson
164,E85,Phillips 66,Fort Wayne,IN,46805,41.097279,-85.098212,28224,False,"(-85.098212, 41.097279)",Allen
165,E85,Speedway,Waite Park,MN,56387,45.554057,-94.23602,28289,False,"(-94.23602, 45.554057)",Stearns
166,E85,Panhandle Co-op - Plaza Cenex,Scottsbluff,NE,69361,41.85540632,-103.6699501,28295,False,"(-103.6699501, 41.85540632)",Scotts Bluff
167,E85,Community Co-op Oil Co - Cenex,Lake Park,MN,56554,46.87636065,-96.10022888,28299,False,"(-96.10022888, 46.87636065)",Becker
168,E85,The Hometown Express,Geneseo,IL,61254,41.4479804,-90.16053570000001,28301,False,"(-90.16053570000001, 41.4479804)",Henry
169,E85,Speedway #1417,Oswego,IL,60543,41.687678999999996,-88.338486,28307,False,"(-88.338486, 41.687678999999996)",Kendall
170,E85,Shell - Jiffi Stop #16,Quincy,IL,62301,39.948277000000004,-91.378235,28310,False,"(-91.378235, 39.948277000000004)",Adams
171,E85,Speedway #1411,Romeoville,IL,60490,41.653589000000004,-88.126517,28311,False,"(-88.126517, 41.653589000000004)",Will
172,E85,Cenex Xtramile - Lenny's,Virginia,IL,62691,39.954339000000004,-90.209919,28312,False,"(-90.209919, 39.954339000000004)",Cass
173,E85,Citgo - Bittersweet Bell-Mart,Mishawaka,IN,46545,41.685464,-86.10929200000001,28317,False,"(-86.10929200000001, 41.685464)",St. Joseph
174,E85,BP - Amoco Food Shop,Benson,MN,56215,45.310269,-95.603799,28323,False,"(-95.603799, 45.310269)",Swift
175,E85,Farmers Co-op Oil Co,Echo,MN,56237,44.616776,-95.418144,28326,False,"(-95.418144, 44.616776)",Yellow Medicine
176,E85,Cenex - Pro Co-op,Pocahontas,IA,50574,42.73288,-94.669241,28327,False,"(-94.669241, 42.73288)",Pocahontas
177,E85,Farmers Co-op Oil Co,Elbow Lake,MN,56531,45.989979,-95.97574399999999,28330,True,"(-95.97574399999999, 45.989979)",Grant
178,E85,Hancock Co-op,Hancock,MN,56244,45.497892,-95.795363,28335,False,"(-95.795363, 45.497892)",Stevens
179,E85,Kum & Go #4020,Ankeny,IA,50023,41.702422999999996,-93.62657,28337,True,"(-93.62657, 41.702422999999996)",Polk
180,E85,Cenex Ampride - Fort Dodge,Fort Dodge,IA,50501,42.500834000000005,-94.148353,28338,True,"(-94.148353, 42.500834000000005)",Webster
181,E85,Linn Co-op Oil Co,Marion,IA,52302,42.030244,-91.572888,28340,False,"(-91.572888, 42.030244)",Linn
182,E85,Five Star Co-op,New Hampton,IA,50659,43.07592,-92.318798,28342,False,"(-92.318798, 43.07592)",Chickasaw
183,E85,Fast Stop Express - Agriland FS,Oskaloosa,IA,52577,41.280273,-92.62091,28343,False,"(-92.62091, 41.280273)",Mahaska
184,E85,Qik-n-EZ #57,Jacksonville,IL,62650,39.691765000000004,-90.229191,28423,True,"(-90.229191, 39.691765000000004)",Morgan
185,E85,JM Reynolds Oil Co,Wabash,IN,46992,40.795572,-85.81810899999999,28527,False,"(-85.81810899999999, 40.795572)",Wabash
186,E85,BC's Truck Plaza Ampride C-Store,Denison,IA,51442,42.023854,-95.371344,28633,False,"(-95.371344, 42.023854)",Crawford
187,E85,Riverside Sinclair,Estherville,IA,51334,43.401195,-94.842552,28634,True,"(-94.842552, 43.401195)",Emmet
188,E85,Anderson's,Milford,IA,51351,43.333366,-95.149953,28635,True,"(-95.149953, 43.333366)",Dickinson
189,E85,Hy-Vee,West Des Moines,IA,50265,41.559763000000004,-93.773744,28636,True,"(-93.773744, 41.559763000000004)",Polk
190,E85,Thorntons #125,Aurora,IL,60504,41.741088,-88.246494,28637,False,"(-88.246494, 41.741088)",DuPage
191,E85,Road Ranger,Rockford,IL,61108,42.238544,-89.033516,28641,False,"(-89.033516, 42.238544)",Winnebago
192,E85,South Central FS,Vandalia,IL,62471,38.978066999999996,-89.115262,28642,False,"(-89.115262, 38.978066999999996)",Fayette
193,E85,Max Fuel #6,Hopkinsville,KY,42240,36.853377,-87.48893000000001,28651,False,"(-87.48893000000001, 36.853377)",Christian
194,E85,Tesoro - Good Oil Co,LaMoure,ND,58458,46.355692,-98.304183,28654,False,"(-98.304183, 46.355692)",LaMoure
195,E85,Marathon Pit Stop,Antwerp,OH,45813,41.180833,-84.742983,28659,False,"(-84.742983, 41.180833)",Paulding
196,E85,Marathon,St. Marys,OH,45885,40.541745,-84.389351,28661,False,"(-84.389351, 40.541745)",Auglaize
197,E85,Badger State Ethanol Smart Station,Monroe,WI,53566,42.594628,-89.662435,28667,True,"(-89.662435, 42.594628)",Green
198,E85,Kum & Go #302,Clear Lake,IA,50428,43.132971000000005,-93.353189,28765,True,"(-93.353189, 43.132971000000005)",Cerro Gordo
199,E85,Cenex - Ampride,Eagle Grove,IA,50533,42.665673999999996,-93.904612,28766,False,"(-93.904612, 42.665673999999996)",Wright
200,E85,Speedway #1419,Homer Glen,IL,60491,41.614843,-87.931122,28770,False,"(-87.931122, 41.614843)",Will
201,E85,Piatt Service Co,Monticello,IL,61856,40.023427000000005,-88.575339,28773,True,"(-88.575339, 40.023427000000005)",Piatt
202,E85,FS Fast Stop Express,Silvis,IL,61282,41.510946000000004,-90.406297,28776,False,"(-90.406297, 41.510946000000004)",Rock Island
203,E85,Cenex C-Store,Raymond,MN,56282,45.015205,-95.239471,28790,False,"(-95.239471, 45.015205)",Kandiyohi
204,E85,Chuck Spaeth Ford,Sleepy Eye,MN,56085,44.288553,-94.726477,28791,False,"(-94.726477, 44.288553)",Brown
205,E85,Christensen Oil Co,Orem,UT,84058,40.306752,-111.731141,28795,False,"(-111.731141, 40.306752)",Utah
206,E85,Kwik Trip #655,Hartford,WI,53027,43.317052000000004,-88.355121,28800,False,"(-88.355121, 43.317052000000004)",Washington
207,E85,Circle K- Gas City,Sierra Vista,AZ,85635,31.52781261,-110.29020220000001,28973,False,"(-110.29020220000001, 31.52781261)",Cochise
208,E85,Fuel Time - Cardtrol,St. Ansgar,IA,50472,43.378656,-92.916397,28976,True,"(-92.916397, 43.378656)",Mitchell
209,E85,Citgo - Stockton Travel Center,Stockton,IL,61085,42.357704999999996,-89.999308,28978,False,"(-89.999308, 42.357704999999996)",Jo Daviess
210,E85,TESORO Farm & Home Oil,Elbow Lake,MN,56531,45.992395,-95.979892,28985,True,"(-95.979892, 45.992395)",Grant
211,E85,Cenex - Plainview - High Plains,Plainview,MN,55964,44.169585,-92.165064,28988,False,"(-92.165064, 44.169585)",Wabasha
212,E85,Break Time Convenience Store #3025,Columbia,MO,65203,38.935992999999996,-92.360138,28992,False,"(-92.360138, 38.935992999999996)",Boone
213,E85,Break Time Convenience Store #3001,Columbia,MO,65201,38.960367,-92.29298299999999,28994,True,"(-92.29298299999999, 38.960367)",Boone
214,E85,Break Time Convenience Store #3095,Warrensburg,MO,64093,38.754723,-93.736106,28998,False,"(-93.736106, 38.754723)",Johnson
215,E85,Spinx #193,Simpsonville,SC,29680,34.705506,-82.2574,29008,False,"(-82.2574, 34.705506)",Greenville
216,E85,Phillips - Gas N Goodies,Aberdeen,SD,57401,45.453339,-98.495964,29009,False,"(-98.495964, 45.453339)",Brown
217,E85,Kwik Trip #384,Janesville,WI,53545,42.722049,-88.996562,29016,False,"(-88.996562, 42.722049)",Rock
218,E85,Petro Serve USA,Bemidji,MN,56601,47.496494,-94.916785,29174,False,"(-94.916785, 47.496494)",Beltrami
219,E85,The Store,Marshfield,WI,54449,44.685831,-90.194637,29176,False,"(-90.194637, 44.685831)",Marathon
220,E85,Fast Stop Travel Center,Litchfield,IL,62056,39.176047,-89.675175,29184,True,"(-89.675175, 39.176047)",Montgomery
221,E85,Highland Travel Plaza,Mitchell,SD,57301,43.6898,-98.00854,29193,True,"(-98.00854, 43.6898)",Davison
222,E85,Cenex Oil Co,Sturgis,SD,57785,44.416389,-103.52505500000001,29194,False,"(-103.52505500000001, 44.416389)",Meade
223,E85,Sunnybrook Mobil Mart,Grandville,MI,49418,42.885712,-85.781769,29287,False,"(-85.781769, 42.885712)",Kent
224,E85,MFA Oil Petro-Card 24,Trenton,MO,64683,40.074611,-93.597427,29379,False,"(-93.597427, 40.074611)",Grundy
225,E85,H-E-B #476,Austin,TX,78753,30.405517,-97.67199699999999,29386,False,"(-97.67199699999999, 30.405517)",Travis
226,E85,H-E-B #477,Buda,TX,78610,30.08711,-97.8206,29387,False,"(-97.8206, 30.08711)",Hays
227,E85,Kroger Fuel Center #374,Houston,TX,77095,29.901435,-95.63159499999999,29388,False,"(-95.63159499999999, 29.901435)",Harris
228,E85,Kroger #577,Irving,TX,75063,32.908539000000005,-96.960994,29389,False,"(-96.960994, 32.908539000000005)",Dallas
229,E85,H-E-B #581,Killeen,TX,76542,31.091859999999997,-97.73609499999999,29390,False,"(-97.73609499999999, 31.091859999999997)",Bell
230,E85,H-E-B #415,Schertz,TX,78154,29.598409999999998,-98.2779,29391,False,"(-98.2779, 29.598409999999998)",Guadalupe
231,E85,Pacific Pride,Richland,WA,99354,46.300162,-119.29883600000001,29393,False,"(-119.29883600000001, 46.300162)",Benton
232,E85,Kwik Trip #455,Ladysmith,WI,54848,45.4641585,-91.1111437,29394,False,"(-91.1111437, 45.4641585)",Rusk
233,E85,Kwik Trip #440,Mosinee,WI,54455,44.786945,-89.68537099999999,29395,False,"(-89.68537099999999, 44.786945)",Marathon
234,E85,Sunoco - Circle A Mart #111,Jasper,IN,47546,38.364496,-86.941009,29396,True,"(-86.941009, 38.364496)",Dubois
235,E85,Mussers Service LLC,Nashville,MI,49073,42.60305,-85.09392700000001,29401,True,"(-85.09392700000001, 42.60305)",Barry
236,E85,Cooperative Elevator Co,Ruth,MI,48470,43.711090000000006,-82.7409,29402,False,"(-82.7409, 43.711090000000006)",Huron
237,E85,MFA Oil Petro-Card 24,Centralia,MO,65240,39.221833000000004,-92.143587,29406,False,"(-92.143587, 39.221833000000004)",Boone
238,E85,Break Time Convenience Store #3024,Columbia,MO,65203,38.964861,-92.338171,29409,False,"(-92.338171, 38.964861)",Boone
239,E85,MFA Oil Petro-Card 24,Dexter,MO,63841,36.79445979,-89.95719273,29411,False,"(-89.95719273, 36.79445979)",Stoddard
240,E85,Break Time Convenience Store #3036,Higginsville,MO,64037,39.069134000000005,-93.733884,29414,False,"(-93.733884, 39.069134000000005)",Lafayette
241,E85,MFA Oil Petro-Card 24,Malta Bend,MO,65339,39.193740999999996,-93.366652,29419,False,"(-93.366652, 39.193740999999996)",Saline
242,E85,MFA Oil Petro-Card 24,Perryville,MO,63775,37.743748,-89.873367,29420,False,"(-89.873367, 37.743748)",Perry
243,E85,Star Energy,Fort Dodge,IA,50501,42.506422,-94.161221,29423,True,"(-94.161221, 42.506422)",Webster
244,E85,East Central Iowa Co-op,Hudson,IA,50643,42.41192,-92.450129,29424,False,"(-92.450129, 42.41192)",Black Hawk
245,E85,Country Line Mart,Keota,IA,52248,41.364244,-91.947084,29425,False,"(-91.947084, 41.364244)",Keokuk
246,E85,Kum & Go #74,West Des Moines,IA,50266,41.567238,-93.810699,29429,False,"(-93.810699, 41.567238)",Dallas
247,E85,Blick & Blick Oil Inc,Aledo,IL,61231,41.200666,-90.74495999999999,29430,False,"(-90.74495999999999, 41.200666)",Mercer
248,E85,Meijer Gas #129,Indianapolis,IN,46254,39.829883,-86.25339100000001,29435,False,"(-86.25339100000001, 39.829883)",Marion
249,E85,Kroger Fuel Center #460,Carrollton,TX,75007,33.019582,-96.91335500000001,29526,False,"(-96.91335500000001, 33.019582)",Denton
250,E85,Kroger Fuel Center #366,Houston,TX,77086,29.910386,-95.478687,29527,False,"(-95.478687, 29.910386)",Harris
251,E85,Kroger Fuel Center #343,Pearland,TX,77581,29.56012,-95.348747,29528,False,"(-95.348747, 29.56012)",Brazoria
252,E85,Kroger Fuel Center #598,Plano,TX,75025,33.109871000000005,-96.766536,29531,False,"(-96.766536, 33.109871000000005)",Collin
253,E85,Sheetz Store #376,Pittsburgh,PA,15025,40.320439,-79.941912,29591,False,"(-79.941912, 40.320439)",Allegheny
254,E85,Break Time Convenience Store #3049,Jefferson City,MO,65109,38.578272,-92.190278,29639,False,"(-92.190278, 38.578272)",Cole
255,E85,Key Co-op - Cenex Pump 24,Nevada,IA,50201,42.022651399999994,-93.45995153,29652,True,"(-93.45995153, 42.022651399999994)",Story
256,E85,County Line Travel Plaza - Marathon,Columbia City,IN,46725,41.29533,-85.587347,29653,False,"(-85.587347, 41.29533)",Noble
257,E85,MFA Oil Petro-Card 24,Mexico,MO,65265,39.163345,-91.858438,29659,False,"(-91.858438, 39.163345)",Audrain
258,E85,Ampride,Lexington,NE,68850,40.7487886,-99.7399082,29660,False,"(-99.7399082, 40.7487886)",Dawson
259,E85,Trotter's Whoa & Go,Ord,NE,68862,41.594260999999996,-98.916431,29661,True,"(-98.916431, 41.594260999999996)",Valley
260,E85,Co-op Elevator Co,Pigeon,MI,47755,43.830047,-83.268819,29664,False,"(-83.268819, 43.830047)",Huron
261,E85,Kwik Trip #740,Hortonville,WI,54944,44.335898,-88.630942,29666,False,"(-88.630942, 44.335898)",Outagamie
262,E85,Kwik Trip #331,Wisconsin Rapids,WI,54494,44.406494,-89.789001,29667,False,"(-89.789001, 44.406494)",Wood
263,E85,Lakeside Ampride - Farm Service Co,Council Bluffs,IA,51503,41.220192,-95.851669,29668,False,"(-95.851669, 41.220192)",Pottawattamie
264,E85,Shell,Schaumburg,IL,60173,42.041546000000004,-88.060333,29671,False,"(-88.060333, 42.041546000000004)",Cook
265,E85,Meijer Gas #237,Warren,MI,48092,42.511233000000004,-83.047217,29678,False,"(-83.047217, 42.511233000000004)",Macomb
266,E85,Marcus Junction,Marcus,IA,51035,42.807127,-95.798592,29837,False,"(-95.798592, 42.807127)",Cherokee
267,E85,Carroll Service Co,Lanark,IL,61046,42.09564674,-89.83950848,29841,False,"(-89.83950848, 42.09564674)",Carroll
268,E85,Shell - Blodgett Foodmart,Lansing,MI,48917,42.713803000000006,-84.60367600000001,29845,False,"(-84.60367600000001, 42.713803000000006)",Eaton
269,E85,76th Street Truck Stop - J&H Family Stores,Byron Center,MI,49315,42.825953000000005,-85.674869,29847,False,"(-85.674869, 42.825953000000005)",Kent
270,E85,Meijer Gas #36,Wyoming,MI,49509,42.864034000000004,-85.681724,29848,False,"(-85.681724, 42.864034000000004)",Kent
271,E85,Cruizers #20,Durham,NC,27713,35.889536,-78.897741,29854,False,"(-78.897741, 35.889536)",Durham
272,E85,Cenex - Prairie Lakes Co-op,Starbuck,MN,56381,45.614092,-95.522093,30013,False,"(-95.522093, 45.614092)",Pope
273,E85,Kwik Trip #414,Stewartville,MN,55976,43.877225,-92.48961,30014,False,"(-92.48961, 43.877225)",Olmsted
274,E85,Kwik Trip #843,Wabasha,MN,55981,44.37877938,-92.03442592,30016,False,"(-92.03442592, 44.37877938)",Wabasha
275,E85,Jack's Standard,Watkins,MN,55389,45.310959000000004,-94.409523,30017,False,"(-94.409523, 45.310959000000004)",Meeker
276,E85,Sunoco,Mt Gilead,OH,43338,40.498129999999996,-82.71999,30025,False,"(-82.71999, 40.498129999999996)",Morrow
277,E85,Thorntons #351,East Peoria,IL,61611,40.731988,-89.520297,30034,False,"(-89.520297, 40.731988)",Tazewell
278,E85,South Central Grain & Energy,Hector,MN,55342,44.738653,-94.714522,30037,True,"(-94.714522, 44.738653)",Renville
279,E85,Farmers Co-op Oil Co,Jeffers,MN,56145,44.055665999999995,-95.194654,30039,True,"(-95.194654, 44.055665999999995)",Cottonwood
280,E85,Meadowland Farmers Co-op,Lamberton,MN,56152,44.231888,-95.28748399999999,30041,False,"(-95.28748399999999, 44.231888)",Redwood
281,E85,Cenex Numart Expressway,Madelia,MN,56062,44.051271,-94.419818,30042,True,"(-94.419818, 44.051271)",Watonwan
282,E85,Lac Qui Parle Co-op Oil,Madison,MN,56256,45.008489000000004,-96.196696,30044,False,"(-96.196696, 45.008489000000004)",Lac qui Parle
283,E85,Holiday Stationstore #11,Mankato,MN,56001,44.169877,-93.948165,30047,False,"(-93.948165, 44.169877)",Blue Earth
284,E85,Paul Bobby & Steve's Mobil,Minneapolis,MN,55419,44.897756,-93.277873,30051,False,"(-93.277873, 44.897756)",Hennepin
285,E85,Cenex - Farmers Union Oil Co,Montevideo,MN,56265,44.948389,-95.696,30053,True,"(-95.696, 44.948389)",Chippewa
286,E85,Cenex - Harvest Land Co-op,Morgan,MN,56266,44.414705,-94.92786,30055,True,"(-94.92786, 44.414705)",Redwood
287,E85,Morris Co-op Association,Morris,MN,56267,45.590137,-95.917661,30056,True,"(-95.917661, 45.590137)",Stevens
288,E85,Cenex C-Store,Ortonville,MN,56278,45.303788,-96.43054599999999,30059,True,"(-96.43054599999999, 45.303788)",Big Stone
289,E85,Southtown of Pelican Rapids,Pelican Rapids,MN,56572,46.559773,-96.08245,30060,False,"(-96.08245, 46.559773)",Otter Tail
290,E85,Holiday Stationstore #31,St. Paul,MN,55106,44.983506,-93.06565,30067,False,"(-93.06565, 44.983506)",Ramsey
291,E85,BP - Elliott Oil Co,Batavia,IA,52533,41.002241999999995,-92.163889,30070,False,"(-92.163889, 41.002241999999995)",Jefferson
292,E85,Kum & Go #4,Lamoni,IA,50140,40.62304,-93.896681,30071,False,"(-93.896681, 40.62304)",Decatur
293,E85,Gibson City Fuel 24,Gibson City,IL,60936,40.456881,-88.369153,30074,False,"(-88.369153, 40.456881)",Ford
294,E85,Riverland Fast Stop,Oquawka,IL,61469,40.923711,-90.864261,30075,False,"(-90.864261, 40.923711)",Henderson
295,E85,Thorntons #364,Ottawa,IL,61350,41.372708,-88.836283,30076,False,"(-88.836283, 41.372708)",LaSalle
296,E85,Holiday Stationstore #379,Blaine,MN,55434,45.150512,-93.236081,30086,False,"(-93.236081, 45.150512)",Anoka
297,E85,Kwik Trip #458,Buffalo,MN,55313,45.1555771,-93.84605529999999,30089,False,"(-93.84605529999999, 45.1555771)",Wright
298,E85,Caledonia Oil Co,Caledonia,MN,55921,43.633604,-91.495899,30091,False,"(-91.495899, 43.633604)",Houston
299,E85,Kwik Trip #753,Eyota,MN,55934,43.997706,-92.24767,30102,False,"(-92.24767, 43.997706)",Olmsted
300,E85,Speedway #8052,Indianapolis,IN,46219,39.796087,-86.024585,30200,False,"(-86.024585, 39.796087)",Marion
301,E85,Minuteman Riverside,Riverside,IL,60546,41.841136999999996,-87.803505,30229,False,"(-87.803505, 41.841136999999996)",Cook
302,E85,218 Fuel Express,Floyd,IA,50435,43.122544,-92.738233,30241,False,"(-92.738233, 43.122544)",Floyd
303,E85,Grinnell Fuel 24,Grinnell,IA,50112,41.725266999999995,-92.722859,30242,True,"(-92.722859, 41.725266999999995)",Poweshiek
304,E85,Meijer Gas #45,Adrian,MI,49221,41.875609999999995,-84.03399999999999,30245,False,"(-84.03399999999999, 41.875609999999995)",Lenawee
305,E85,DTE Energy - Meijer #64,Ann Arbor,MI,48103,42.241184000000004,-83.768778,30246,False,"(-83.768778, 42.241184000000004)",Washtenaw
306,E85,Meijer Gas #44,Flint,MI,48507,42.946084,-83.729385,30247,False,"(-83.729385, 42.946084)",Genesee
307,E85,Meijer Gas #47,Holland,MI,49423,42.783217,-86.07565799999999,30248,False,"(-86.07565799999999, 42.783217)",Ottawa
308,E85,Meijer Gas #30,Jackson,MI,49202,42.271778999999995,-84.450331,30249,False,"(-84.450331, 42.271778999999995)",Jackson
309,E85,Meijer Gas #54,Northville,MI,48167,42.435849,-83.437166,30250,False,"(-83.437166, 42.435849)",Wayne
310,E85,DTE Energy - Meijer #35,Taylor,MI,48180,42.198932,-83.258806,30251,False,"(-83.258806, 42.198932)",Wayne
311,E85,MFA Oil Petro-Card 24,Kirksville,MO,63501,40.234942,-92.583866,30252,False,"(-92.583866, 40.234942)",Adair
312,E85,All Points Co-op - Ampride,Gothenburg,NE,69138,40.928364,-100.16586099999999,30256,False,"(-100.16586099999999, 40.928364)",Dawson
313,E85,Speedway #8017,Moraine,OH,45459,39.672497,-84.213817,30257,False,"(-84.213817, 39.672497)",Montgomery
314,E85,Sheetz Store #360,Monroeville,PA,15146,40.437695,-79.774261,30261,False,"(-79.774261, 40.437695)",Allegheny
315,E85,Sheetz Store #353,Pittsburgh,PA,15205,40.447720000000004,-80.15740500000001,30262,False,"(-80.15740500000001, 40.447720000000004)",Allegheny
316,E85,Kum & Go #625,Sioux Falls,SD,57106,43.51548,-96.811644,30266,True,"(-96.811644, 43.51548)",Minnehaha
317,E85,Kroger Fuel Center #357,Conroe,TX,77301,30.335555,-95.47806800000001,30268,False,"(-95.47806800000001, 30.335555)",Montgomery
318,E85,Chestor Bandits Store,Columbus,WI,53925,43.33007,-89.026046,30275,False,"(-89.026046, 43.33007)",Columbia
319,E85,Eau Claire Travel Stop - River Country Co-op,Eau Claire,WI,54703,44.89185,-91.550697,30276,False,"(-91.550697, 44.89185)",Chippewa
320,E85,Mega Express - Holiday Stationstore #3709,Eau Claire,WI,54701,44.76149108,-91.45702959,30277,False,"(-91.45702959, 44.76149108)",Eau Claire
321,E85,BP,Lake Mills,WI,53551,43.0896,-88.910011,30282,False,"(-88.910011, 43.0896)",Jefferson
322,E85,Larson Beach BP,McFarland,WI,53558,43.017542999999996,-89.299927,30284,False,"(-89.299927, 43.017542999999996)",Dane
323,E85,Burke Oil - Irving Gas Station,Chelsea,MA,2150,42.394121999999996,-71.046605,30392,False,"(-71.046605, 42.394121999999996)",Suffolk
324,E85,Heritage Co-op,Urbana,OH,43078,40.119762,-83.74695600000001,30393,False,"(-83.74695600000001, 40.119762)",Champaign
325,E85,Woodman's Grocery,North Aurora,IL,60542,41.804458000000004,-88.37159399999999,30397,False,"(-88.37159399999999, 41.804458000000004)",Kane
326,E85,Mobil - Hill Petroleum,Arvada,CO,80002,39.8027,-105.0634,30402,False,"(-105.0634, 39.8027)",Jefferson
327,E85,Kroger Fuel Center #853,Columbus,OH,43213,39.984302,-82.81658,30448,False,"(-82.81658, 39.984302)",Franklin
328,E85,First Co-op Association,Ida Grove,IA,51445,42.350646999999995,-95.468014,30461,False,"(-95.468014, 42.350646999999995)",Ida
329,E85,Martin's Super Markets - Fuel Depot,Granger,IN,46530,41.72538,-86.176406,30463,False,"(-86.176406, 41.72538)",St. Joseph
330,E85,Kwik Trip #457,Oshkosh,WI,54904,43.985877,-88.58319499999999,30507,False,"(-88.58319499999999, 43.985877)",Winnebago
331,E85,MFA Oil Petro-Card 24,Nevada,MO,64772,37.842531,-94.34146199999999,30536,False,"(-94.34146199999999, 37.842531)",Vernon
332,E85,Kroger Fuel Center #384,Cincinnati,OH,45231,39.219491999999995,-84.518753,30537,False,"(-84.518753, 39.219491999999995)",Hamilton
333,E85,Kroger Fuel Center #362,Cypress,TX,77429,29.971127000000003,-95.690172,30542,False,"(-95.690172, 29.971127000000003)",Harris
334,E85,The Town & Country Store,Dunlap,IA,51529,41.856882,-95.601541,30545,False,"(-95.601541, 41.856882)",Harrison
335,E85,Agriland FS Fuel 24,Harlan,IA,51537,41.645405,-95.326077,30546,False,"(-95.326077, 41.645405)",Shelby
336,E85,East Gate Express,Lebanon,MO,65536,37.667802,-92.627252,30642,False,"(-92.627252, 37.667802)",Laclede
337,E85,Schild's IGA Supercenter,Norwalk,OH,44857,41.256023,-82.612442,30704,False,"(-82.612442, 41.256023)",Huron
338,E85,Liberty Square Station,Sun Prairie,WI,53590,43.200469,-89.226399,30707,False,"(-89.226399, 43.200469)",Dane
339,E85,Speedway #8044,Greencastle,IN,46135,39.646273,-86.83289599999999,30709,False,"(-86.83289599999999, 39.646273)",Putnam
340,E85,Holiday Stationstore #374,Cottage Grove,MN,55016,44.832245,-92.967128,30714,False,"(-92.967128, 44.832245)",Washington
341,E85,Holiday Stationstore #344,Monticello,MN,55362,45.295937,-93.800315,30716,False,"(-93.800315, 45.295937)",Wright
342,E85,Kwik Trip #464,Rochester,MN,55902,43.954018,-92.471397,30717,False,"(-92.471397, 43.954018)",Olmsted
343,E85,Meijer Gas #196,Portage,MI,49024,42.188514,-85.60374,30739,False,"(-85.60374, 42.188514)",Kalamazoo
344,E85,Meijer Gas #55,Sterling Heights,MI,48312,42.562807,-83.026224,30740,False,"(-83.026224, 42.562807)",Macomb
345,E85,Meijer Gas #177,Washington Township,MI,48094,42.71565,-83.032517,30741,False,"(-83.032517, 42.71565)",Macomb
346,E85,Meijer Gas #227,White Lake,MI,48383,42.65149,-83.532119,30742,False,"(-83.532119, 42.65149)",Oakland
347,E85,Kum & Go #26,Adrian,MN,56110,43.640688,-95.934373,30743,False,"(-95.934373, 43.640688)",Nobles
348,E85,Battle Lake Cenex,Battle Lake,MN,56515,46.275149,-95.722714,30744,False,"(-95.722714, 46.275149)",Otter Tail
349,E85,Tri County Co-op Oil,Chokio,MN,56221,45.571589,-96.174314,30745,False,"(-96.174314, 45.571589)",Stevens
350,E85,Meijer Gas #132,Greenwood,IN,46142,39.615998,-86.159203,30746,False,"(-86.159203, 39.615998)",Johnson
351,E85,Meijer Gas #136,Anderson,IN,46013,40.04813,-85.65135,30747,False,"(-85.65135, 40.04813)",Madison
352,E85,Meijer Gas #133,Avon,IN,46123,39.761746,-86.32943,30748,False,"(-86.32943, 39.761746)",Hendricks
353,E85,Meijer Gas #204,Camby,IN,46113,39.639828,-86.33582,30749,False,"(-86.33582, 39.639828)",Hendricks
354,E85,Meijer Gas #130,Carmel,IN,46032,39.971309999999995,-86.153739,30750,False,"(-86.153739, 39.971309999999995)",Hamilton
355,E85,Meijer Gas #124,Fort Wayne,IN,46818,41.137440000000005,-85.162617,30751,False,"(-85.162617, 41.137440000000005)",Allen
356,E85,Meijer Gas #127,Goshen,IN,46526,41.628867,-85.910208,30752,False,"(-85.910208, 41.628867)",Elkhart
357,E85,Meijer Gas #170,Highland,IN,46322,41.5280837,-87.4712663,30753,False,"(-87.4712663, 41.5280837)",Lake
358,E85,Meijer Gas #131,Indianapolis,IN,46229,39.774626,-85.964125,30754,False,"(-85.964125, 39.774626)",Marion
359,E85,Meijer Gas #134,Indianapolis,IN,46237,39.665436,-86.077877,30755,False,"(-86.077877, 39.665436)",Marion
360,E85,Meijer Gas #154,Indianapolis,IN,46256,39.925623,-86.021488,30756,False,"(-86.021488, 39.925623)",Marion
361,E85,Meijer Gas #167,Jeffersonville,IN,47130,38.322866999999995,-85.709476,30757,False,"(-85.709476, 38.322866999999995)",Clark
362,E85,Meijer Gas #141,Kokomo,IN,46901,40.476132,-86.101759,30758,False,"(-86.101759, 40.476132)",Howard
363,E85,Meijer Gas #137,Lafayette,IN,47905,40.417459,-86.812252,30759,False,"(-86.812252, 40.417459)",Tippecanoe
364,E85,Meijer Gas #165,Merrillville,IN,46410,41.470147,-87.34321800000001,30760,False,"(-87.34321800000001, 41.470147)",Lake
365,E85,Meijer Gas #128,Mishawaka,IN,46544,41.627856,-86.17557099999999,30762,False,"(-86.17557099999999, 41.627856)",St. Joseph
366,E85,Meijer Gas #230,Noblesville,IN,46060,40.035185,-85.992075,30763,False,"(-85.992075, 40.035185)",Hamilton
367,E85,Meijer Gas #155,Richmond,IN,47374,39.868601,-84.887854,30764,False,"(-84.887854, 39.868601)",Wayne
368,E85,Meijer Gas #195,Battle Creek,MI,49014,42.261063,-85.173861,30765,False,"(-85.173861, 42.261063)",Calhoun
369,E85,Meijer Gas #187,Bay City,MI,48708,43.583049,-83.838655,30766,False,"(-83.838655, 43.583049)",Bay
370,E85,Meijer Gas #46,Brighton,MI,48116,42.539935,-83.785995,30767,False,"(-83.785995, 42.539935)",Livingston
371,E85,Meijer Gas #32,Canton,MI,48187,42.319897,-83.485026,30768,False,"(-83.485026, 42.319897)",Wayne
372,E85,Meijer Gas #109,Commerce,MI,48390,42.54724,-83.438662,30769,False,"(-83.438662, 42.54724)",Oakland
373,E85,Meijer Gas #158,Grand Rapids,MI,49525,42.997136,-85.593734,30770,False,"(-85.593734, 42.997136)",Kent
374,E85,Meijer Gas #23,Lansing,MI,48917,42.739502,-84.623524,30771,False,"(-84.623524, 42.739502)",Eaton
375,E85,Holiday Stationstore #341,St. Paul,MN,55104,44.949015,-93.15731,30840,False,"(-93.15731, 44.949015)",Ramsey
376,E85,Speedy #4,Perry,GA,31069,32.447148,-83.75019,30844,False,"(-83.75019, 32.447148)",Houston
377,E85,Farm Service Co-op,Harlan,IA,51537,41.646437,-95.337242,30846,True,"(-95.337242, 41.646437)",Shelby
378,E85,Fast Eddie's,West Baden,IN,47469,38.560108,-86.614011,30850,True,"(-86.614011, 38.560108)",Orange
379,E85,Mobil - Cascardo Oil,Canton,MI,48187,42.351178999999995,-83.445116,30851,False,"(-83.445116, 42.351178999999995)",Wayne
380,E85,Family Express - Lafayette State Road 25,Lafayette,IN,47905,40.462265,-86.840401,30934,True,"(-86.840401, 40.462265)",Tippecanoe
381,E85,Family Express - Valpo Market Place,Valparaiso,IN,46383,41.469918,-87.026485,30935,True,"(-87.026485, 41.469918)",Porter
382,E85,Family Express - Michigan City Interstate,Michigan City,IN,46360,41.666235,-86.89478199999999,30940,False,"(-86.89478199999999, 41.666235)",LaPorte
383,E85,Eastern Iowa Propane Limited,Clinton,IA,52732,41.816303000000005,-90.29656999999999,30963,False,"(-90.29656999999999, 41.816303000000005)",Clinton
384,E85,Pro Co-op - Graettinger Cardtrol,Graettinger,IA,51342,43.276061999999996,-94.77934,30965,False,"(-94.77934, 43.276061999999996)",Emmet
385,E85,Family Express - Hobart County Line Rd,Hobart,IN,46342,41.549973,-87.22205500000001,30976,False,"(-87.22205500000001, 41.549973)",Lake
386,E85,Family Express - La Porte Pine Lake,La Porte,IN,46350,41.631756,-86.738562,30977,False,"(-86.738562, 41.631756)",LaPorte
387,E85,Family Express - Kersey,Wheatfield,IN,46392,41.187101,-87.15015600000001,30978,False,"(-87.15015600000001, 41.187101)",Jasper
388,E85,Kroger Fuel Center #815,Columbus,OH,43207,39.88777,-83.001492,31059,False,"(-83.001492, 39.88777)",Franklin
389,E85,Family Express - Lafayette State Road 38,Lafayette,IN,47905,40.38621,-86.83406,31060,False,"(-86.83406, 40.38621)",Tippecanoe
390,E85,Kroger Fuel Center #844,Circleville,OH,43113,39.59831,-82.93183499999999,31083,False,"(-82.93183499999999, 39.59831)",Pickaway
391,E85,Kroger Fuel Center #842,Grove City,OH,43123,39.841062,-83.07490899999999,31084,False,"(-83.07490899999999, 39.841062)",Franklin
392,E85,Kroger Fuel Center #538,Pickerington,OH,43147,39.906595,-82.778898,31085,False,"(-82.778898, 39.906595)",Fairfield
393,E85,Hull Co-op Association,Hull,IA,51239,43.186118,-96.13029859999999,31158,False,"(-96.13029859999999, 43.186118)",Sioux
394,E85,Shell - Express Lane #9,Rock Falls,IL,61071,41.770613899999994,-89.70491772,31160,False,"(-89.70491772, 41.770613899999994)",Whiteside
395,E85,Speedway #4740,Buffalo,MN,55313,45.168126,-93.859638,31163,False,"(-93.859638, 45.168126)",Wright
396,E85,Cenex Convenience Store,Drayton,ND,58225,48.570764000000004,-97.177842,31169,False,"(-97.177842, 48.570764000000004)",Pembina
397,E85,North Central Farmers Elevator,Warner,SD,57479,45.32355,-98.49538100000001,31174,True,"(-98.49538100000001, 45.32355)",Brown
398,E85,Citgo - Brown Hen One Stop,Indianapolis,IN,46205,39.803359,-86.144335,31195,False,"(-86.144335, 39.803359)",Marion
399,E85,Shell,Skokie,IL,60076,42.018572,-87.71161,31203,False,"(-87.71161, 42.018572)",Cook
400,E85,Kroger #392,Covington,KY,41015,39.040061,-84.50926199999999,31209,False,"(-84.50926199999999, 39.040061)",Kenton
401,E85,MFA Oil Petro-Card 24,Union,MO,63084,38.404478000000005,-90.985279,31211,False,"(-90.985279, 38.404478000000005)",Franklin
402,E85,Kroger Fuel Center #895,Sylvania,OH,43560,41.68665116,-83.72430274,31239,False,"(-83.72430274, 41.68665116)",Lucas
403,E85,Kroger Fuel Center #511,Toledo,OH,43613,41.704735,-83.586703,31240,False,"(-83.586703, 41.704735)",Lucas
404,E85,Kroger Fuel Center #309,Houston,TX,77057,29.748789000000002,-95.50020699999999,31242,False,"(-95.50020699999999, 29.748789000000002)",Harris
405,E85,Kroger Fuel Center #367,Humble,TX,77396,29.979267,-95.215458,31243,False,"(-95.215458, 29.979267)",Harris
406,E85,Kroger Fuel Center #355,Cincinnati,OH,45209,39.14602,-84.429112,31247,False,"(-84.429112, 39.14602)",Hamilton
407,E85,Kroger Fuel Center #395,Blanchester,OH,45107,39.300984,-83.960963,31248,False,"(-83.960963, 39.300984)",Clinton
408,E85,Kroger Fuel Center #519,Columbus,OH,43228,39.920536,-83.12019699999999,31249,False,"(-83.12019699999999, 39.920536)",Franklin
409,E85,Kroger Fuel Center #435,Loveland,OH,45140,39.229517,-84.254521,31251,False,"(-84.254521, 39.229517)",Clermont
410,E85,Kroger Fuel Center #939,Perrysburg,OH,43551,41.546316,-83.597459,31252,False,"(-83.597459, 41.546316)",Wood
411,E85,Kroger Fuel Center #461,Sachse,TX,75048,32.969032,-96.60385699999999,31253,False,"(-96.60385699999999, 32.969032)",Dallas
412,E85,Kiess Brothers,Cold Spring,MN,56320,45.457557,-94.41630500000001,31335,False,"(-94.41630500000001, 45.457557)",Stearns
413,E85,Kwik Trip #385,Northfield,MN,55057,44.454516,-93.16713,31336,False,"(-93.16713, 44.454516)",Rice
414,E85,Little Duke's,Princeton,MN,55371,45.556231,-93.581352,31337,True,"(-93.581352, 45.556231)",Sherburne
415,E85,Little Duke's,St. Cloud,MN,56301,45.550233,-94.17626700000001,31338,True,"(-94.17626700000001, 45.550233)",Stearns
416,E85,Kroger Fuel Center #582,North Richland Hills,TX,76180,32.824849,-97.227773,31339,False,"(-97.227773, 32.824849)",Tarrant
417,E85,Kroger Fuel Center #754,Dayton,OH,45424,39.817421,-84.12549,31375,False,"(-84.12549, 39.817421)",Montgomery
418,E85,H & H Mobil,East Lansing,MI,48823,42.746596999999994,-84.461929,31429,False,"(-84.461929, 42.746596999999994)",Ingham
419,E85,Western Convenience Store,Colorado Springs,CO,80920,38.941168,-104.775784,31460,False,"(-104.775784, 38.941168)",El Paso
420,E85,Cenex - Agland,Greeley,CO,80634,40.396577,-104.73549200000001,31488,False,"(-104.73549200000001, 40.396577)",Weld
421,E85,Kroger Fuel Center #617,Toledo,OH,43611,41.705818,-83.50018100000001,31530,False,"(-83.50018100000001, 41.705818)",Lucas
422,E85,Kroger Fuel Center #914,Troy,OH,45373,40.029563,-84.220637,31531,False,"(-84.220637, 40.029563)",Miami
423,E85,Kroger Fuel Center #587,Dallas,TX,75287,32.998094,-96.846261,31532,False,"(-96.846261, 32.998094)",Denton
424,E85,H-E-B #095,Laredo,TX,78045,27.608103000000003,-99.474439,31533,False,"(-99.474439, 27.608103000000003)",Webb
425,E85,H-E-B #094,Mission,TX,78572,26.197582999999998,-98.28627900000001,31534,False,"(-98.28627900000001, 26.197582999999998)",Hidalgo
426,E85,Poudre Valley Co-op,Fort Collins,CO,80524,40.58992,-105.00301699999999,31535,False,"(-105.00301699999999, 40.58992)",Larimer
427,E85,Mobil - Kelly Express Mart 72,Albion,MI,49224,42.265794,-84.758361,31538,False,"(-84.758361, 42.265794)",Calhoun
428,E85,I-55 Motor Plaza,Pevely,MO,63070,38.287228000000006,-90.405831,31540,False,"(-90.405831, 38.287228000000006)",Jefferson
429,E85,Bucky's Express #18,Omaha,NE,68137,41.210543,-96.080611,31541,False,"(-96.080611, 41.210543)",Douglas
430,E85,Campus Mobil,Albany,NY,12203,42.677310999999996,-73.82424499999999,31542,False,"(-73.82424499999999, 42.677310999999996)",Albany
431,E85,Kroger Fuel Center #835,Springfield,OH,45503,39.923497,-83.765659,31544,False,"(-83.765659, 39.923497)",Clark
432,E85,Circle K,Perry,GA,31069,32.50515364,-83.66175685,31573,False,"(-83.66175685, 32.50515364)",Houston
433,E85,Kwik Trip #400,Beaver Dam,WI,53916,43.485902,-88.818205,31613,False,"(-88.818205, 43.485902)",Dodge
434,E85,Mega Express - Holiday Stationstore #3711,Chippewa Falls,WI,54729,44.863265999999996,-91.428969,31614,False,"(-91.428969, 44.863265999999996)",Chippewa
435,E85,Kwik Trip #470,Plymouth,WI,53073,43.747177,-87.95196059999999,31615,False,"(-87.95196059999999, 43.747177)",Sheboygan
436,E85,Kwik Trip #301,River Falls,WI,54022,44.845092,-92.628601,31616,False,"(-92.628601, 44.845092)",Pierce
437,E85,Corner Store #1670,Sierra Vista,AZ,85635,31.555121999999997,-110.25848400000001,31619,False,"(-110.25848400000001, 31.555121999999997)",Cochise
438,E85,Fredericksburg Farmers Co-op,Fredericksburg,IA,50630,42.964597999999995,-92.203234,31620,False,"(-92.203234, 42.964597999999995)",Chickasaw
439,E85,Wow Marathon,Fraser,MI,48026,42.525797,-82.94644699999999,31622,False,"(-82.94644699999999, 42.525797)",Macomb
440,E85,Wesco #47,Lakeview,MI,48850,43.4312,-85.26477,31623,False,"(-85.26477, 43.4312)",Montcalm
441,E85,Kwik Trip #447,Shakopee,MN,55379,44.771549,-93.41288399999999,31624,False,"(-93.41288399999999, 44.771549)",Scott
442,E85,Kwik Trip #460,Waconia,MN,55387,44.847614,-93.771096,31625,False,"(-93.771096, 44.847614)",Carver
443,E85,Family Express - Monticello,Monticello,IN,47960,40.745404,-86.775943,31667,True,"(-86.775943, 40.745404)",White
444,E85,Alta Convenience Store - Conoco,Aurora,CO,80014,39.653535,-104.811149,31668,False,"(-104.811149, 39.653535)",Arapahoe
445,E85,Family Express - Kouts,Kouts,IN,46347,41.317802,-87.026149,31669,False,"(-87.026149, 41.317802)",Porter
446,E85,Family Express - Monon,Monon,IN,47959,40.864166,-86.878683,31670,True,"(-86.878683, 40.864166)",White
447,E85,Family Express - Ameriplex,Portage,IN,46368,41.607855,-87.17287900000001,31671,False,"(-87.17287900000001, 41.607855)",Porter
448,E85,Family Express - Lafayette,Lafayette,IN,47904,40.420142999999996,-86.85766600000001,31672,False,"(-86.85766600000001, 40.420142999999996)",Tippecanoe
449,E85,Kroger Fuel Center #867,Hilliard,OH,43026,40.002159000000006,-83.155913,31676,False,"(-83.155913, 40.002159000000006)",Franklin
450,E85,Family Express - Westville,Westville,IN,46391,41.541084000000005,-86.91284300000001,31677,True,"(-86.91284300000001, 41.541084000000005)",LaPorte
451,E85,Family Express - Chesterton,Chesterton,IN,46304,41.594064,-87.04271999999999,31704,True,"(-87.04271999999999, 41.594064)",Porter
452,E85,Kum & Go #24,Pleasant Hill,IA,50327,41.597944,-93.492188,31722,False,"(-93.492188, 41.597944)",Polk
453,E85,BP - Casey's General Store,Mapleton,IA,51034,42.168378000000004,-95.793308,31723,False,"(-95.793308, 42.168378000000004)",Monona
454,E85,Hamlin County Farmers Co-op,Hayti,SD,57241,44.659144,-97.207889,31725,True,"(-97.207889, 44.659144)",Hamlin
455,E85,Kum & Go #620,Sioux Falls,SD,57103,43.550751,-96.670637,31726,True,"(-96.670637, 43.550751)",Minnehaha
456,E85,Cenex Convenience Store & Car Wash,Webster,SD,57274,45.340594,-97.52055,31727,True,"(-97.52055, 45.340594)",Day
457,E85,Kroger Fuel Center #590,Crowley,TX,76036,32.56433484,-97.3522768,31729,False,"(-97.3522768, 32.56433484)",Tarrant
458,E85,Alta Convenience Store,Longmont,CO,80501,40.15274,-105.10773999999999,31733,False,"(-105.10773999999999, 40.15274)",Boulder
459,E85,Alta Convenience Store,Pueblo,CO,81008,38.29709570000001,-104.6154997,31734,False,"(-104.6154997, 38.29709570000001)",Pueblo
460,E85,Alta Convenience Store,Pueblo,CO,81005,38.272626,-104.662501,31735,False,"(-104.662501, 38.272626)",Pueblo
461,E85,Kum & Go #201,Coralville,IA,52241,41.681309000000006,-91.566315,31736,True,"(-91.566315, 41.681309000000006)",Johnson
462,E85,Kum & Go #95,De Soto,IA,50069,41.5376336,-94.01261690000001,31737,True,"(-94.01261690000001, 41.5376336)",Dallas
463,E85,Kum & Go #22,Grinnell,IA,50112,41.700506,-92.72615,31738,True,"(-92.72615, 41.700506)",Poweshiek
464,E85,Kum & Go #23,Neola,IA,51559,41.438767,-95.613467,31739,False,"(-95.613467, 41.438767)",Pottawattamie
465,E85,Alta Convenience Store,Colorado Springs,CO,80904,38.843522,-104.857161,31785,False,"(-104.857161, 38.843522)",El Paso
466,E85,BP - Monroe Center,Monroe Center,IL,61052,42.101168,-89.017255,31787,False,"(-89.017255, 42.101168)",Ogle
467,E85,Family Express - Plymouth,Plymouth,IN,46563,41.343027,-86.328097,31789,False,"(-86.328097, 41.343027)",Marshall
468,E85,Cenex - Agri Co-op,Holdrege,NE,68949,40.438308,-99.364892,31791,False,"(-99.364892, 40.438308)",Phelps
469,E85,Pilot Food Mart #105,Knoxville,TN,37923,35.924901,-84.06611,31865,False,"(-84.06611, 35.924901)",Knox
470,E85,Sunoco - Georgetown,Washington,DC,20007,38.922384,-77.073001,31943,False,"(-77.073001, 38.922384)",District of Columbia
471,E85,Kum & Go #62,Johnston,IA,50131,41.671824,-93.737099,31950,False,"(-93.737099, 41.671824)",Polk
472,E85,H-E-B #14,Kyle,TX,78640,30.01448,-97.8631,31952,False,"(-97.8631, 30.01448)",Hays
473,E85,Twice Daily #6603,Goodlettsville,TN,37072,36.323459,-86.708259,31976,False,"(-86.708259, 36.323459)",Davidson
474,E85,Circle K Store,Toledo,OH,43613,41.724156,-83.623786,32103,False,"(-83.623786, 41.724156)",Lucas
475,E85,Twice Daily #6135,Lebanon,TN,37090,36.188573,-86.326256,32105,False,"(-86.326256, 36.188573)",Wilson
476,E85,Kroger Fuel Center #398,League City,TX,77573,29.507516,-95.04153000000001,32106,False,"(-95.04153000000001, 29.507516)",Galveston
477,E85,Casey's General Store,Overbrook,KS,66524,38.7817,-95.5513,32110,False,"(-95.5513, 38.7817)",Osage
478,E85,McCormick Food & Fuel,Muskegon,MI,49445,43.325345,-86.235896,32111,False,"(-86.235896, 43.325345)",Muskegon
479,E85,Sunoco,Southfield,MI,48075,42.473006,-83.220522,32112,False,"(-83.220522, 42.473006)",Oakland
480,E85,Moose Lake Mini Mart,Moose Lake,MN,55767,46.454454,-92.771226,32115,False,"(-92.771226, 46.454454)",Carlton
481,E85,Marathon Quick Stop - Lincoln Gas,Vincennes,IN,47591,38.676393,-87.530383,32187,False,"(-87.530383, 38.676393)",Knox
482,E85,MaxYield Co-op,Emmetsburg,IA,50536,43.111164,-94.640265,32234,False,"(-94.640265, 43.111164)",Palo Alto
483,E85,Meijer Gas #33,Traverse City,MI,49684,44.743357200000005,-85.6412603,32238,False,"(-85.6412603, 44.743357200000005)",Grand Traverse
484,E85,La Grand Mobil Station,Rapid City,SD,57703,44.098133000000004,-103.157928,32274,False,"(-103.157928, 44.098133000000004)",Pennington
485,E85,Main Street BP Station,Jackson,WI,53037,43.324744,-88.18355,32275,False,"(-88.18355, 43.324744)",Washington
486,E85,Tri Par Oil Co,West Bend,WI,53095,43.37663094,-88.18071092,32276,False,"(-88.18071092, 43.37663094)",Washington
487,E85,Alta Convenience Store,Denver,CO,80222,39.680908,-104.921912,32279,False,"(-104.921912, 39.680908)",Denver
488,E85,Shell - Circle K,Crystal Lake,IL,60014,42.227866999999996,-88.32852700000001,32368,False,"(-88.32852700000001, 42.227866999999996)",McHenry
489,E85,Westbrook Expressway C-Store,Westbrook,MN,56183,44.036697,-95.436839,32369,False,"(-95.436839, 44.036697)",Cottonwood
490,E85,Kroger #584,Mansfield,TX,76063,32.607189,-97.117599,32372,False,"(-97.117599, 32.607189)",Tarrant
491,E85,Kwik Trip #429,Forest Lake,MN,55025,45.251762,-93.008459,32401,False,"(-93.008459, 45.251762)",Washington
492,E85,Kwik Trip #417,Oconomowoc,WI,53066,43.125209000000005,-88.46187900000001,32402,False,"(-88.46187900000001, 43.125209000000005)",Waukesha
493,E85,Western Convenience Store,Colorado Springs,CO,80907,38.839021,-104.77939,32404,False,"(-104.77939, 38.839021)",El Paso
494,E85,Western Convenience Store,Denver,CO,80221,39.827591999999996,-105.01522800000001,32406,False,"(-105.01522800000001, 39.827591999999996)",Adams
495,E85,Western Convenience Store,Longmont,CO,80501,40.185109999999995,-105.101891,32409,False,"(-105.101891, 40.185109999999995)",Boulder
496,E85,Western Convenience Store,Pueblo,CO,81004,38.218308,-104.62556500000001,32410,False,"(-104.62556500000001, 38.218308)",Pueblo
497,E85,Western Convenience Store,Thornton,CO,80260,39.863116,-104.996078,32411,False,"(-104.996078, 39.863116)",Adams
498,E85,Kroger Fuel Center #518,Mansfield,OH,44906,40.759734,-82.560901,32448,False,"(-82.560901, 40.759734)",Richland
499,E85,Kwik Trip #337,New Richmond,WI,54017,45.10405,-92.536836,32451,False,"(-92.536836, 45.10405)",St. Croix
500,E85,Wingate Creek BP,West Bend,WI,53095,43.42674,-88.141175,32452,False,"(-88.141175, 43.42674)",Washington
501,E85,Auburn Marathon,Auburn,IN,46706,41.365322,-85.08551700000001,32456,False,"(-85.08551700000001, 41.365322)",DeKalb
502,E85,Break Time Convenience Store #3123,Springfield,MO,65804,37.19679,-93.275784,32460,False,"(-93.275784, 37.19679)",Greene
503,E85,Kroger Fuel Center #581,Dublin,OH,43016,40.121365999999995,-83.092463,32463,False,"(-83.092463, 40.121365999999995)",Franklin
504,E85,Speedway #7138,Smyrna,TN,37167,35.935309000000004,-86.529881,32521,False,"(-86.529881, 35.935309000000004)",Rutherford
505,E85,Kwik Trip #451,Antigo,WI,54409,45.1623173,-89.1312889,32522,False,"(-89.1312889, 45.1623173)",Langlade
506,E85,Kwik Trip #424,Fairmont,MN,56031,43.651498,-94.446394,32524,False,"(-94.446394, 43.651498)",Martin
507,E85,Kwik Trip #454,Hugo,MN,55038,45.164315,-93.017961,32525,False,"(-93.017961, 45.164315)",Washington
508,E85,Holiday Stationstore #395,Ramsey,MN,55303,45.22576706,-93.44898252,32527,False,"(-93.44898252, 45.22576706)",Anoka
509,E85,Family Express - Winfield,Crown Point,IN,46307,41.420757,-87.238364,32567,True,"(-87.238364, 41.420757)",Lake
510,E85,Family Express - North Judson,North Judson,IN,46366,41.215548,-86.771563,32568,False,"(-86.771563, 41.215548)",Starke
511,E85,Family Express - Remington Interstate,Remington,IN,47977,40.765172,-87.12482800000001,32569,False,"(-87.12482800000001, 40.765172)",Jasper
512,E85,Fastlane #34,Cottleville,MO,63376,38.760106,-90.6532,32580,False,"(-90.6532, 38.760106)",St. Charles
513,E85,E-Z Shop #5,Walterboro,SC,29488,32.919727,-80.677886,32582,False,"(-80.677886, 32.919727)",Colleton
514,E85,Pearson Fuels - Bressi Ranch Fuel Mart,Carlsbad,CA,92009,33.127936,-117.251427,32583,False,"(-117.251427, 33.127936)",San Diego
515,E85,ConservFuel,Los Angeles,CA,90049,34.053925,-118.465643,32584,False,"(-118.465643, 34.053925)",Los Angeles
516,E85,Pearson Fuels - G&M #198,Oceanside,CA,92054,33.189298,-117.36426100000001,32585,False,"(-117.36426100000001, 33.189298)",San Diego
517,E85,Martin's Super Markets,Goshen,IN,46528,41.595802,-85.856827,32589,False,"(-85.856827, 41.595802)",Elkhart
518,E85,Citgo - Corner Station,Marion,IN,46952,40.559926000000004,-85.692778,32590,False,"(-85.692778, 40.559926000000004)",Grant
519,E85,United Co-op,Beaver Dam,WI,53916,43.450347,-88.809853,32592,True,"(-88.809853, 43.450347)",Dodge
520,E85,Kwik Trip #420,Green Bay,WI,54302,44.493036,-87.984178,32593,False,"(-87.984178, 44.493036)",Brown
521,E85,United Co-op,Poynette,WI,53955,43.395214,-89.395713,32594,True,"(-89.395713, 43.395214)",Columbia
522,E85,United Co-op,Watertown,WI,53098,43.208904,-88.734981,32595,False,"(-88.734981, 43.208904)",Dodge
523,E85,Murphy USA #7416,Washington,MO,63090,38.540433,-90.992497,32617,False,"(-90.992497, 38.540433)",Franklin
524,E85,Speedway #2960,Sahuarita,AZ,85629,31.957369099999998,-110.982087,32623,False,"(-110.982087, 31.957369099999998)",Pima
525,E85,E-Z Shop #6,Ladson,SC,29456,32.966737,-80.14784300000001,32625,False,"(-80.14784300000001, 32.966737)",Dorchester
526,E85,Kickapoo Quick Stop,Readstown,WI,54652,43.445865000000005,-90.77165500000001,32627,False,"(-90.77165500000001, 43.445865000000005)",Vernon
527,E85,Kwik Trip #456,Verona,WI,53593,42.971256,-89.512884,32633,False,"(-89.512884, 42.971256)",Dane
528,E85,Citgo - Aisha Wash and Fuel Island,Chicago,IL,60639,41.930943,-87.76577900000001,32648,False,"(-87.76577900000001, 41.930943)",Cook
529,E85,Shell - Dogwood,Vestavia Hills,AL,35216,33.415065999999996,-86.804916,32677,False,"(-86.804916, 33.415065999999996)",Jefferson
530,E85,Fairview Quick Stop,Fairview,IL,61432,40.642621000000005,-90.163751,32679,False,"(-90.163751, 40.642621000000005)",Fulton
531,E85,Meijer Gas #176,Springfield,IL,62711,39.735915999999996,-89.704303,32681,False,"(-89.704303, 39.735915999999996)",Sangamon
532,E85,Fastlane,St. Charles,MO,63301,38.760717,-90.54006700000001,32682,False,"(-90.54006700000001, 38.760717)",St. Charles
533,E85,Kroger Fuel Center #839,Columbus,OH,43240,40.140054,-82.990639,32684,False,"(-82.990639, 40.140054)",Delaware
534,E85,Get N Go #20,Sioux Falls,SD,57105,43.522554,-96.732104,32685,False,"(-96.732104, 43.522554)",Minnehaha
535,E85,RoadRunner,Atkinson,NE,68713,42.529159,-98.971264,32699,False,"(-98.971264, 42.529159)",Holt
536,E85,Spinx #233,Spartanburg,SC,29302,34.950117999999996,-81.917539,32700,False,"(-81.917539, 34.950117999999996)",Spartanburg
537,E85,FastLane Chevron,Tucson,AZ,85713,32.178442,-110.94205500000001,32726,False,"(-110.94205500000001, 32.178442)",Pima
538,E85,Midway Service Station,Baltic,SD,57003,43.702993,-96.710672,32728,True,"(-96.710672, 43.702993)",Minnehaha
539,E85,Cenex - Renville,Renville,MN,56277,44.7893,-95.2017,32735,False,"(-95.2017, 44.7893)",Renville
540,E85,Eagle Convenience #5 - Cenex,Yuma,CO,80759,40.119917,-102.71607900000001,32736,False,"(-102.71607900000001, 40.119917)",Yuma
541,E85,Cenex - Sheldon Plaza,Sheldon,IA,51201,43.185465,-95.816231,32739,False,"(-95.816231, 43.185465)",O'Brien
542,E85,Meijer Gas #207,Normal,IL,61761,40.510825,-88.94846899999999,32743,False,"(-88.94846899999999, 40.510825)",McLean
543,E85,Speedway #4453,Sauk Rapids,MN,56379,45.581777,-94.065399,32748,True,"(-94.065399, 45.581777)",Benton
544,E85,Pilot Food Mart #104,Knoxville,TN,37922,35.859863,-84.069847,32752,False,"(-84.069847, 35.859863)",Knox
545,E85,Western States Petroleum,Phoenix,AZ,85007,33.443115999999996,-112.092402,32887,False,"(-112.092402, 33.443115999999996)",Maricopa
546,E85,Russ's Super Saver,Omaha,NE,68137,41.201456,-96.141274,32897,False,"(-96.141274, 41.201456)",Douglas
547,E85,Kum & Go #141,Grimes,IA,50111,41.673511,-93.773486,32899,True,"(-93.773486, 41.673511)",Polk
548,E85,Yes Way,Mason City,IA,50401,43.133204,-93.201716,32900,False,"(-93.201716, 43.133204)",Cerro Gordo
549,E85,Farmers Mutual Town & Country,New Market,IA,51646,40.729896999999994,-94.899559,32902,False,"(-94.899559, 40.729896999999994)",Taylor
550,E85,Kum & Go #28,Norwalk,IA,50211,41.496704,-93.674987,32903,False,"(-93.674987, 41.496704)",Warren
551,E85,Penn & Jeff BP,Ottumwa,IA,52501,41.027215000000005,-92.401914,32904,False,"(-92.401914, 41.027215000000005)",Wapello
552,E85,Yes Way,Ottumwa,IA,52501,41.052144,-92.408526,32905,False,"(-92.408526, 41.052144)",Wapello
553,E85,Farmers Co-Op Association,Red Oak,IA,51566,41.01744185,-95.23316204,32906,True,"(-95.23316204, 41.01744185)",Montgomery
554,E85,Walford BP,Walford,IA,52351,41.876064,-91.838525,32907,False,"(-91.838525, 41.876064)",Benton
555,E85,Holiday Stationstore #157,West St. Paul,MN,55118,44.891313000000004,-93.081295,32912,False,"(-93.081295, 44.891313000000004)",Dakota
556,E85,Rocky's Drive Thru,Barberton,OH,44023,41.024088,-81.60984300000001,32917,False,"(-81.60984300000001, 41.024088)",Summit
557,E85,Cliff's One Stop,Britton,SD,57430,45.791140000000006,-97.75237,32920,False,"(-97.75237, 45.791140000000006)",Marshall
558,E85,Clark Community Oil - Gas Plus,Clark,SD,57225,44.877972,-97.73226700000001,32921,True,"(-97.73226700000001, 44.877972)",Clark
559,E85,BerMac Inc,Faulkton,SD,57438,45.03492,-99.12263100000001,32922,False,"(-99.12263100000001, 45.03492)",Faulk
560,E85,Get N Go #7,Sioux Falls,SD,57104,43.541214000000004,-96.73097800000001,32923,False,"(-96.73097800000001, 43.541214000000004)",Minnehaha
561,E85,Cenex Convenience Store & Car Wash,Watertown,SD,57201,44.890502000000005,-97.08959899999999,32925,True,"(-97.08959899999999, 44.890502000000005)",Codington
562,E85,Kwik Trip #487,Johnson Creek,WI,53038,43.082363,-88.76440699999999,32929,False,"(-88.76440699999999, 43.082363)",Jefferson
563,E85,Krachey's BP Truck Stop,Prairie Du Chien,WI,53821,43.029262,-91.12813100000001,32931,False,"(-91.12813100000001, 43.029262)",Crawford
564,E85,Grainco FS,Yorkville,IL,61560,41.602711,-88.436269,32939,False,"(-88.436269, 41.602711)",Kendall
565,E85,Holiday Stationstore #3537,Inver Grove Heights,MN,55076,44.817424,-93.044658,32946,False,"(-93.044658, 44.817424)",Dakota
566,E85,Pearson Fuels - Chevron,Concord,CA,94520,38.014829999999996,-121.999551,32954,False,"(-121.999551, 38.014829999999996)",Contra Costa
567,E85,Mobil - North Damen Mart,Chicago,IL,60618,41.932702,-87.67811999999999,32958,False,"(-87.67811999999999, 41.932702)",Cook
568,E85,Meijer Gas #143,Lewis Center,OH,43035,40.16083,-83.019756,32974,False,"(-83.019756, 40.16083)",Delaware
569,E85,Meijer Gas #111,Marion,OH,43302,40.581481,-83.073608,32975,False,"(-83.073608, 40.581481)",Marion
570,E85,Meijer Gas #117,Toledo,OH,43617,41.673722999999995,-83.71665300000001,32976,False,"(-83.71665300000001, 41.673722999999995)",Lucas
571,E85,Meijer Gas #112,Troy,OH,45373,40.054970000000004,-84.243111,32977,False,"(-84.243111, 40.054970000000004)",Miami
572,E85,Pearson Fuels - Chevron,Hayward,CA,94541,37.666392,-122.11051100000002,32979,False,"(-122.11051100000002, 37.666392)",Alameda
573,E85,Uncle Neal's Country Convenience Store,Hastings,NE,68901,40.585786,-98.391816,32980,False,"(-98.391816, 40.585786)",Adams
574,E85,Meijer Gas #156,Bowling Green,OH,43402,41.375161,-83.609274,32981,False,"(-83.609274, 41.375161)",Wood
575,E85,Meijer Gas #246,Canal Winchester,OH,43110,39.846148,-82.778979,32982,False,"(-82.778979, 39.846148)",Fairfield
576,E85,Meijer Gas #114,Columbus,OH,43230,40.060792,-82.863024,32983,False,"(-82.863024, 40.060792)",Franklin
577,E85,Meijer Gas #106,Dayton,OH,45415,39.858152000000004,-84.278231,32984,False,"(-84.278231, 39.858152000000004)",Montgomery
578,E85,Meijer Gas #61,Franklin,OH,45005,39.499515,-84.331438,32985,False,"(-84.331438, 39.499515)",Warren
579,E85,Meijer Gas #234,Grove City,OH,43123,39.839073,-83.08195,32986,False,"(-83.08195, 39.839073)",Franklin
580,E85,Meijer Gas #241,Huber Heights,OH,45424,39.869752000000005,-84.100674,32987,False,"(-84.100674, 39.869752000000005)",Montgomery
581,E85,Kum & Go #376,Omaha,NE,68130,41.238307,-96.221228,32999,True,"(-96.221228, 41.238307)",Douglas
582,E85,Sunoco - McBirney's Auto Service,Massapequa,NY,11758,40.692811999999996,-73.464669,33001,False,"(-73.464669, 40.692811999999996)",Nassau
583,E85,Chevron,Atlanta,GA,30329,33.83745508,-84.31129161,33003,False,"(-84.31129161, 33.83745508)",DeKalb
584,E85,Chevron,Atlanta,GA,30350,33.959803,-84.302853,33007,False,"(-84.302853, 33.959803)",DeKalb
585,E85,BP - Safa Express,Lawrenceville,GA,30046,33.956196999999996,-83.988108,33010,False,"(-83.988108, 33.956196999999996)",Gwinnett
586,E85,Texaco,Stone Mountain,GA,30083,33.825956,-84.19546899999999,33012,False,"(-84.19546899999999, 33.825956)",DeKalb
587,E85,Jay's Garage,Portland,OR,97214,45.51746,-122.65836399999999,33018,False,"(-122.65836399999999, 45.51746)",Multnomah
588,E85,Break Time Convenience Store #3032,Fulton,MO,65251,38.8608985,-91.94413467,33020,False,"(-91.94413467, 38.8608985)",Callaway
589,E85,Mobil on the Run,St. Louis,MO,63132,38.687446,-90.362635,33021,False,"(-90.362635, 38.687446)",St. Louis
590,E85,Cumberland Farms #3132,Schenectady,NY,12306,42.786570000000005,-73.99776999999999,33025,False,"(-73.99776999999999, 42.786570000000005)",Schenectady
591,E85,Chevron,Tulare,CA,93274,36.239781,-119.34957800000001,33028,False,"(-119.34957800000001, 36.239781)",Tulare
592,E85,Kum & Go #551,Springfield,MO,65807,37.175418,-93.29545300000001,33030,False,"(-93.29545300000001, 37.175418)",Greene
593,E85,Kum & Go #558,Springfield,MO,65802,37.196597,-93.262431,33031,False,"(-93.262431, 37.196597)",Greene
594,E85,Shell,Marysville,WA,98271,48.151405,-122.210598,33041,False,"(-122.210598, 48.151405)",Snohomish
595,E85,Fredericktowne W Express,Frederick,MD,21702,39.419638,-77.460062,33049,False,"(-77.460062, 39.419638)",Frederick
596,E85,Nambe Falls Travel Center,Santa Fe,NM,87506,35.853453,-105.99660300000001,33051,False,"(-105.99660300000001, 35.853453)",Santa Fe
597,E85,H-E-B #020,Cypress,TX,77429,29.957225,-95.673501,33067,False,"(-95.673501, 29.957225)",Harris
598,E85,H-E-B #109,Houston,TX,77055,29.785945,-95.531975,33068,False,"(-95.531975, 29.785945)",Harris
599,E85,Andy's,Milwaukee,WI,53223,43.17838,-88.01216,33069,True,"(-88.01216, 43.17838)",Milwaukee
600,E85,Mobil - Midway,Chicago,IL,60652,41.744262,-87.72134,33072,False,"(-87.72134, 41.744262)",Cook
601,E85,Turkey Lake Service Plaza - Shell,Ocoee,FL,32835,28.514944,-81.49933100000001,33120,False,"(-81.49933100000001, 28.514944)",Orange
602,E85,Little Duke's,Hastings,MN,55033,44.715356,-92.846603,33121,True,"(-92.846603, 44.715356)",Dakota
603,E85,McClure Oil #2,Marion,IN,46953,40.546693,-85.673358,33150,False,"(-85.673358, 40.546693)",Grant
604,E85,McClure Oil #44,Muncie,IN,47303,40.223559,-85.369897,33151,False,"(-85.369897, 40.223559)",Delaware
605,E85,McClure Oil #33,Peru,IN,46970,40.757307,-86.060238,33152,False,"(-86.060238, 40.757307)",Miami
606,E85,Alta Convenience Store,Woodland Park,CO,80863,39.031669,-105.08102199999999,33154,False,"(-105.08102199999999, 39.031669)",Teller
607,E85,Sparq - U Pump It,Garden City,KS,67846,37.962455,-100.846437,33155,True,"(-100.846437, 37.962455)",Finney
608,E85,McClure Oil #57,Elwood,IN,46036,40.276790000000005,-85.810364,33157,False,"(-85.810364, 40.276790000000005)",Madison
609,E85,McClure Oil #59,Gas City,IN,46933,40.48004,-85.55098000000001,33158,False,"(-85.55098000000001, 40.48004)",Grant
610,E85,McClure Oil #46,Greencastle,IN,46135,39.63353,-86.85302,33159,False,"(-86.85302, 39.63353)",Putnam
611,E85,McClure Oil #52,Lebanon,IN,46052,40.048254,-86.491979,33161,False,"(-86.491979, 40.048254)",Boone
612,E85,McClure Oil #50,South Bend,IN,46615,41.694286,-86.214943,33162,False,"(-86.214943, 41.694286)",St. Joseph
613,E85,McClure Oil #41,Indianapolis,IN,46224,39.764790999999995,-86.25078,33196,False,"(-86.25078, 39.764790999999995)",Marion
614,E85,McClure Oil #43,Indianapolis,IN,46268,39.881526,-86.244766,33197,False,"(-86.244766, 39.881526)",Marion
615,E85,McClure Oil #3,Marion,IN,46952,40.559995,-85.657655,33198,False,"(-85.657655, 40.559995)",Grant
616,E85,Shell,Bloomfield Hills,MI,48304,42.603363,-83.26333699999999,33199,False,"(-83.26333699999999, 42.603363)",Oakland
617,E85,Kwik Trip #807,Brillion,WI,54110,44.182553000000006,-88.06514399999999,33213,False,"(-88.06514399999999, 44.182553000000006)",Calumet
618,E85,Kwik Trip #472,Eau Claire,WI,54701,44.788697,-91.517515,33214,False,"(-91.517515, 44.788697)",Eau Claire
619,E85,Kwik Trip #459,Eau Claire,WI,54701,44.794525,-91.457994,33215,False,"(-91.457994, 44.794525)",Eau Claire
620,E85,Woodman's Food Markets,Oak Creek,WI,53154,42.896471999999996,-87.915544,33219,False,"(-87.915544, 42.896471999999996)",Milwaukee
621,E85,The Store,Stevens Point,WI,54482,44.500004,-89.50731,33221,False,"(-89.50731, 44.500004)",Portage
622,E85,Kwik Trip #484,Tomah,WI,54660,44.018456,-90.506614,33222,False,"(-90.506614, 44.018456)",Monroe
623,E85,Petro Travel Plaza,Rochelle,IL,61068,41.93549,-89.032205,33225,True,"(-89.032205, 41.93549)",Ogle
624,E85,Lake Region Co-op,Annandale,MN,55302,45.261528000000006,-94.123345,33227,True,"(-94.123345, 45.261528000000006)",Wright
625,E85,Freeborn County Co-op,Lyle,MN,55953,43.503833,-92.94409,33232,False,"(-92.94409, 43.503833)",Mower
626,E85,Morris Amoco Food Shop,Morris,MN,56267,45.584297,-95.912347,33234,False,"(-95.912347, 45.584297)",Stevens
627,E85,Cenex - Farmers Co-op,Forest City,IA,50436,43.2606526,-93.63342659999999,33242,False,"(-93.63342659999999, 43.2606526)",Winnebago
628,E85,Sapp Brothers Petroleum - Sinclair,Sioux City,IA,51101,42.490158,-96.389347,33243,False,"(-96.389347, 42.490158)",Woodbury
629,E85,Shell - Gages Lake,Gages Lake,IL,60030,42.356644,-88.003008,33246,False,"(-88.003008, 42.356644)",Lake
630,E85,Farmers Union Oil Co - Hazel Branch,Hazel,SD,57242,44.759533000000005,-97.38091899999999,33263,True,"(-97.38091899999999, 44.759533000000005)",Hamlin
631,E85,Fuel Stop,Groton,SD,57445,45.4576838,-98.1055029,33264,True,"(-98.1055029, 45.4576838)",Brown
632,E85,Food N Fuel,Milbank,SD,57252,45.219259,-96.63916800000001,33268,True,"(-96.63916800000001, 45.219259)",Grant
633,E85,Jump Start,Colwich,KS,67030,37.779392,-97.536313,33269,True,"(-97.536313, 37.779392)",Sedgwick
634,E85,Junction 975,Rock Rapids,IA,51246,43.4316118,-96.17588070000001,33270,True,"(-96.17588070000001, 43.4316118)",Lyon
635,E85,Cenex - Garner Townmart,Garner,IA,50438,43.105733,-93.59916899999999,33271,False,"(-93.59916899999999, 43.105733)",Hancock
636,E85,Kum & Go #121,Urbandale,IA,50323,41.62992,-93.783089,33272,False,"(-93.783089, 41.62992)",Polk
637,E85,Thorntons #21,Louisville,KY,40213,38.156689,-85.71563,33273,False,"(-85.71563, 38.156689)",Jefferson
638,E85,Kwik Trip #477,St. Bonifacius,MN,55375,44.90139309,-93.74842515,33277,False,"(-93.74842515, 44.90139309)",Hennepin
639,E85,Meijer Gas #51,Findlay,OH,45840,41.056709000000005,-83.60039499999999,33283,False,"(-83.60039499999999, 41.056709000000005)",Hancock
640,E85,Tom's Marathon,Harrison,OH,45030,39.240082,-84.773471,33284,False,"(-84.773471, 39.240082)",Hamilton
641,E85,Kwik Trip #450,Slinger,WI,53086,43.325195,-88.260029,33286,False,"(-88.260029, 43.325195)",Washington
642,E85,Little Duke's,New Prague,MN,56071,44.542048,-93.55449200000001,33292,True,"(-93.55449200000001, 44.542048)",Le Sueur
643,E85,Bob & Steve's BP,Somerset,WI,54025,45.123658,-92.65475,33296,False,"(-92.65475, 45.123658)",St. Croix
644,E85,Pacific Pride Station,DeKalb,IL,60115,41.935712,-88.72373499999999,33297,True,"(-88.72373499999999, 41.935712)",DeKalb
645,E85,Express Convenience Center,Menasha,WI,54952,44.205056,-88.43964100000001,33298,False,"(-88.43964100000001, 44.205056)",Winnebago
646,E85,Berens Warehouse & Groceries,Milbank,SD,57252,45.225725,-96.611073,33300,False,"(-96.611073, 45.225725)",Grant
647,E85,Farmers Union Oil Co,Ferney,SD,57439,45.327319,-98.096953,33301,True,"(-98.096953, 45.327319)",Brown
648,E85,Farmers Union Oil Co,Bryant,SD,57221,44.587311,-97.443803,33302,True,"(-97.443803, 44.587311)",Hamlin
649,E85,Kum & Go #934,Wellington,CO,80549,40.702201,-105.000419,33325,False,"(-105.000419, 40.702201)",Larimer
650,E85,Holiday Stationstore #403,North Branch,MN,55056,45.510706,-92.996133,33338,False,"(-92.996133, 45.510706)",Chisago
651,E85,Thunderbird Petroleum,Sheridan Lake,CO,81071,38.46626,-102.289739,33343,False,"(-102.289739, 38.46626)",Kiowa
652,E85,Eagle Travel Stop,Sterling,CO,80751,40.6171,-103.184285,33344,False,"(-103.184285, 40.6171)",Logan
653,E85,Meijer Gas #213,Birch Run,MI,48415,43.250204,-83.771048,33357,False,"(-83.771048, 43.250204)",Saginaw
654,E85,Twice Daily #8863,Nashville,TN,37215,36.102931,-86.815943,33359,False,"(-86.815943, 36.102931)",Davidson
655,E85,Gateway Gas & Deli,Snoqualmie,WA,98065,47.528686,-121.875976,33360,False,"(-121.875976, 47.528686)",King
656,E85,Dakota Plains Co-op,Forman,ND,58032,46.081035,-97.633562,33374,True,"(-97.633562, 46.081035)",Sargent
657,E85,Ray Carroll Fuels,Carrollton,MO,64633,39.365138,-93.4288771,33388,False,"(-93.4288771, 39.365138)",Carroll
658,E85,Shell,Irvington,NY,10533,41.039006,-73.865296,33393,False,"(-73.865296, 41.039006)",Westchester
659,E85,Kum & Go #914,Greeley,CO,80634,40.407385999999995,-104.7935,33397,False,"(-104.7935, 40.407385999999995)",Weld
660,E85,Kwik Star #704,Parkersburg,IA,50665,42.573319,-92.790914,33399,False,"(-92.790914, 42.573319)",Butler
661,E85,Thorntons #106,Edinburgh,IN,46124,39.312028000000005,-85.965106,33400,True,"(-85.965106, 39.312028000000005)",Bartholomew
662,E85,Shell,Grand Blanc,MI,48439,42.915519,-83.722924,33402,False,"(-83.722924, 42.915519)",Genesee
663,E85,Sunoco,Oak Park,MI,48237,42.474163,-83.201273,33403,False,"(-83.201273, 42.474163)",Oakland
664,E85,Citgo,Lindenhurst,NY,11757,40.715264000000005,-73.393473,33404,False,"(-73.393473, 40.715264000000005)",Suffolk
665,E85,Western Convenience Store,Fowler,CO,81039,38.131197,-104.02466700000001,33435,False,"(-104.02466700000001, 38.131197)",Otero
666,E85,Western Convenience Store,Idaho Springs,CO,80452,39.741825,-105.502674,33442,False,"(-105.502674, 39.741825)",Clear Creek
667,E85,Boulder Gas,Boulder,CO,80301,40.028771,-105.258794,33443,False,"(-105.258794, 40.028771)",Boulder
668,E85,FSC Mart - Godfather's,Corning,IA,50841,40.988077000000004,-94.732439,33448,False,"(-94.732439, 40.988077000000004)",Adams
669,E85,Pioneer Rest Area - BP,Dubuque,IA,52002,42.486828,-90.74916999999999,33449,False,"(-90.74916999999999, 42.486828)",Dubuque
670,E85,Oak Street Station,Inwood,IA,51240,43.306999,-96.430225,33451,True,"(-96.430225, 43.306999)",Lyon
671,E85,Hy-Vee,Newton,IA,50208,41.698476,-93.034665,33453,False,"(-93.034665, 41.698476)",Jasper
672,E85,Jack Rabbit Junction - Co-op Energy Co,Sibley,IA,51249,43.401794,-95.72144200000001,33456,False,"(-95.72144200000001, 43.401794)",Osceola
673,E85,Kum & Go #4127,Sloan,IA,51055,42.227249,-96.236211,33457,True,"(-96.236211, 42.227249)",Woodbury
674,E85,Western Convenience Store,Colorado Springs,CO,80904,38.847578000000006,-104.850252,33493,False,"(-104.850252, 38.847578000000006)",El Paso
675,E85,Family Express #34 - Roselawn,Roselawn,IN,46310,41.144816999999996,-87.273803,33497,False,"(-87.273803, 41.144816999999996)",Jasper
676,E85,Break Time Convenience Store #3164,Macon,MO,63552,39.745858,-92.46655799999999,33501,True,"(-92.46655799999999, 39.745858)",Macon
677,E85,Flyers - Valero,North Highlands,CA,95660,38.660751,-121.36476299999998,33503,False,"(-121.36476299999998, 38.660751)",Sacramento
678,E85,Blue Star Gas - Olive Ave Chevron,Peoria,AZ,85385,33.566781,-112.254539,33508,False,"(-112.254539, 33.566781)",Maricopa
679,E85,Propel Fuels - 76,Rocklin,CA,95677,38.781434999999995,-121.2651,33509,False,"(-121.2651, 38.781434999999995)",Placer
680,E85,Stop In Food Stores #67,Charlottesville,VA,22901,38.070157,-78.485287,33511,False,"(-78.485287, 38.070157)",Albemarle
681,E85,Gasamat #204,Cheyenne,WY,82001,41.135917,-104.80804300000001,33653,False,"(-104.80804300000001, 41.135917)",Laramie
682,E85,Propel Fuels - Shell,Sacramento,CA,95828,38.49565,-121.409398,33654,False,"(-121.409398, 38.49565)",Sacramento
683,E85,Propel Fuels - Shell,Sacramento,CA,95826,38.549124,-121.409773,33655,False,"(-121.409773, 38.549124)",Sacramento
684,E85,Propel Fuels - Shell,Citrus Heights,CA,95610,38.707056,-121.29078700000001,33659,False,"(-121.29078700000001, 38.707056)",Sacramento
685,E85,Propel Fuels - Shell,Elk Grove,CA,95624,38.424101,-121.39081399999999,33660,False,"(-121.39081399999999, 38.424101)",Sacramento
686,E85,Washingtonian W Express,Gaithersburg,MD,20878,39.116564000000004,-77.20664000000001,33665,False,"(-77.20664000000001, 39.116564000000004)",Montgomery
687,E85,Port Saint Lucie Service Plaza - Florida Turnpike,Port St. Lucie,FL,34984,27.3015,-80.37228,33712,False,"(-80.37228, 27.3015)",St. Lucie
688,E85,Jump Start,Wichita,KS,67216,37.649569,-97.31897099999999,33727,True,"(-97.31897099999999, 37.649569)",Sedgwick
689,E85,Meijer Gas #243,Clinton Township,MI,48043,42.59685,-82.9004,33735,False,"(-82.9004, 42.59685)",Macomb
690,E85,Meijer Gas #113,Corunna,MI,48817,43.001338,-84.115975,33736,False,"(-84.115975, 43.001338)",Shiawassee
691,E85,Mobil - Zolten,Flint,MI,48507,42.988292,-83.675523,33739,False,"(-83.675523, 42.988292)",Genesee
692,E85,Alex's Market & Grill,Holly,MI,48442,42.814432000000004,-83.573089,33740,False,"(-83.573089, 42.814432000000004)",Oakland
693,E85,Meijer Gas #229,Marysville,MI,48040,42.90933913,-82.49854659,33741,False,"(-82.49854659, 42.90933913)",St. Clair
694,E85,Meijer Gas #43,Saginaw,MI,48604,43.480106,-83.982058,33742,False,"(-83.982058, 43.480106)",Saginaw
695,E85,Marathon,Warren,MI,48092,42.519962,-83.048186,33744,False,"(-83.048186, 42.519962)",Macomb
696,E85,J & H Family Stores - Pit Stop Mobil,Wyoming,MI,49519,42.932159000000006,-85.72176400000001,33745,False,"(-85.72176400000001, 42.932159000000006)",Kent
697,E85,Vriesland Country Store,Zeeland,MI,49464,42.811274,-85.940742,33746,False,"(-85.940742, 42.811274)",Ottawa
698,E85,Kum & Go #497,Republic,MO,65738,37.145778,-93.430214,33755,True,"(-93.430214, 37.145778)",Greene
699,E85,Multi-County Oil Co,Williamsburg,IA,52361,41.661561999999996,-92.004575,33776,False,"(-92.004575, 41.661561999999996)",Iowa
700,E85,Shell - East Dundee,East Dundee,IL,60118,42.088071,-88.244838,33777,False,"(-88.244838, 42.088071)",Kane
701,E85,Midwest Petroleum - ZX,Glen Carbon,IL,62034,38.77384,-89.957272,33778,False,"(-89.957272, 38.77384)",Madison
702,E85,Sullivan's Fuels,Kewanee,IL,61443,41.223621,-89.928818,33779,False,"(-89.928818, 41.223621)",Henry
703,E85,Meijer Gas #247,Urbana,IL,61802,40.0843651,-88.18982745,33783,False,"(-88.18982745, 40.0843651)",Champaign
704,E85,Speedway #8033,Cambridge City,IN,47327,39.849695000000004,-85.143992,33784,False,"(-85.143992, 39.849695000000004)",Wayne
705,E85,Lassus Handy Dandy #34,Roanoke,IN,46783,40.961026000000004,-85.37066300000001,33788,False,"(-85.37066300000001, 40.961026000000004)",Huntington
706,E85,Jump Start,Wichita,KS,67203,37.722848,-97.387962,33797,True,"(-97.387962, 37.722848)",Sedgwick
707,E85,Pennsylvania Turnpike - North Somerset Service Plaza - 7-Eleven,Somerset,PA,15501,40.00178,-79.046458,33799,False,"(-79.046458, 40.00178)",Somerset
708,E85,Pennsylvania Turnpike - Sideling Hill Service Plaza - 7-Eleven,Waterfall,PA,16689,40.0586825,-78.0817503,33801,False,"(-78.0817503, 40.0586825)",Fulton
709,E85,E-Z Shop #7,Denmark,SC,29042,33.338475,-81.140297,33805,False,"(-81.140297, 33.338475)",Bamberg
710,E85,E-Z Shop #22,St. Matthews,SC,29135,33.633125,-80.779253,33807,False,"(-80.779253, 33.633125)",Calhoun
711,E85,E-Z Shop #25,Santee,SC,29142,33.484453,-80.46955600000001,33808,False,"(-80.46955600000001, 33.484453)",Orangeburg
712,E85,E-Z Shop #24,Summerton,SC,29148,33.525985999999996,-80.429783,33809,False,"(-80.429783, 33.525985999999996)",Clarendon
713,E85,E-Z Shop #4,Walterboro,SC,29488,32.8797,-80.720017,33810,False,"(-80.720017, 32.8797)",Colleton
714,E85,E-Z Shop #9,Walterboro,SC,29488,32.89867,-80.647322,33811,False,"(-80.647322, 32.89867)",Colleton
715,E85,E-Z Shop #16,Yemassee,SC,29945,32.701203,-80.866556,33812,False,"(-80.866556, 32.701203)",Hampton
716,E85,Kum & Go #615,Elk Point,SD,57025,42.669228000000004,-96.664098,33813,True,"(-96.664098, 42.669228000000004)",Union
717,E85,Quik Mart #14,Columbia,TN,38401,35.636174,-87.016531,33816,False,"(-87.016531, 35.636174)",Maury
718,E85,Quik Mart #10,Lewisburg,TN,37091,35.461838,-86.782317,33818,False,"(-86.782317, 35.461838)",Marshall
719,E85,Kroger Fuel Center #364,Spring,TX,77379,30.075231,-95.51679399999999,33822,False,"(-95.51679399999999, 30.075231)",Harris
720,E85,Kwik Trip #498,Menomonie,WI,54751,44.87161,-91.930439,33828,False,"(-91.930439, 44.87161)",Dunn
721,E85,Kwik Trip #496,Sun Prairie,WI,53590,43.184346000000005,-89.263759,33829,False,"(-89.263759, 43.184346000000005)",Dane
722,E85,Corner Stop,Geneva,NE,68361,40.530059,-97.596131,33832,True,"(-97.596131, 40.530059)",Fillmore
723,E85,Bosselman's Pump & Pantry #41,Kearney,NE,68847,40.728881,-99.06530699999999,33834,False,"(-99.06530699999999, 40.728881)",Buffalo
724,E85,Aurora Co-op,Minden,NE,68959,40.506707,-98.93270799999999,33838,True,"(-98.93270799999999, 40.506707)",Kearney
725,E85,Farmers Co-op Association,Ravenna,NE,68869,41.016375,-98.91176800000001,33842,False,"(-98.91176800000001, 41.016375)",Buffalo
726,E85,Shell,Bedford Hills,NY,10507,41.238459999999996,-73.701367,33849,False,"(-73.701367, 41.238459999999996)",Westchester
727,E85,Airport Mobil,Latham,NY,12110,42.766233,-73.814499,33853,False,"(-73.814499, 42.766233)",Albany
728,E85,Glockner Oil - Pacific Pride,Piketon,OH,45601,39.020928999999995,-83.027401,33860,False,"(-83.027401, 39.020928999999995)",Pike
729,E85,In & Out Mart,Sylvania,OH,43560,41.716719,-83.677539,33861,False,"(-83.677539, 41.716719)",Lucas
730,E85,Kroger Fuel Center #965,Westerville,OH,43081,40.160558,-82.878685,33862,False,"(-82.878685, 40.160558)",Delaware
731,E85,Kum & Go #876,Owasso,OK,74055,36.27903,-95.811489,33863,False,"(-95.811489, 36.27903)",Rogers
732,E85,Bucky's Express #17,Council Bluffs,IA,51503,41.243213,-95.824562,33864,False,"(-95.824562, 41.243213)",Pottawattamie
733,E85,Cenex - Chandler Co-op,Slayton,MN,56172,43.993462,-95.765408,33867,False,"(-95.765408, 43.993462)",Murray
734,E85,Cenex - Farmers Co-op Fuel and Hardware,Fisher,MN,56723,47.803699,-96.799017,33868,True,"(-96.799017, 47.803699)",Polk
735,E85,Mobil On the Run,Brentwood,MO,63144,38.621786,-90.34819300000001,33902,False,"(-90.34819300000001, 38.621786)",St. Louis
736,E85,Ray Carroll Fuels C-Store,Richmond,MO,64085,39.278371,-93.987477,33903,False,"(-93.987477, 39.278371)",Ray
737,E85,Naval Air Station Oceana - Navy Exchange (NEX),Virginia Beach,VA,23460,36.801003,-76.010064,33904,False,"(-76.010064, 36.801003)",Virginia Beach
738,E85,Western Convenience Store,Broomfield,CO,80020,39.927149,-105.033898,33908,False,"(-105.033898, 39.927149)",Broomfield
739,E85,Western Convenience Store,Colorado Springs,CO,80907,38.87457,-104.826511,33910,False,"(-104.826511, 38.87457)",El Paso
740,E85,Pearson Fuels - Tooley Shell,Sacramento,CA,95834,38.637316,-121.50478999999999,33930,False,"(-121.50478999999999, 38.637316)",Sacramento
741,E85,Mobil - Lisle,Lisle,IL,60532,41.78648499,-88.07452908,33934,False,"(-88.07452908, 41.78648499)",DuPage
742,E85,Central Prairie Co-op,Hutchinson,KS,67501,38.057815999999995,-97.955968,33935,True,"(-97.955968, 38.057815999999995)",Reno
743,E85,MFA Oil Petro-Card 24,Carrollton,MO,64633,39.353319,-93.49595,33936,False,"(-93.49595, 39.353319)",Carroll
744,E85,Kwik Trip #741,Oshkosh,WI,54902,43.995124,-88.54311,33940,False,"(-88.54311, 43.995124)",Winnebago
745,E85,Effingham Fast Stop General Store,Effingham,IL,62401,39.117958,-88.53744499999999,34186,False,"(-88.53744499999999, 39.117958)",Effingham
746,E85,Fast Stop,Flora,IL,62839,38.672436,-88.4433,34187,False,"(-88.4433, 38.672436)",Clay
747,E85,Thorntons #157,Louisville,KY,40222,38.225364,-85.577492,34207,False,"(-85.577492, 38.225364)",Jefferson
748,E85,BP,Croton-on-Hudson,NY,10520,41.194311,-73.880944,34216,False,"(-73.880944, 41.194311)",Westchester
749,E85,Pearson Fuels - Arco,Galt,CA,95632,38.26858537,-121.30301159999999,34223,False,"(-121.30301159999999, 38.26858537)",Sacramento
750,E85,Kum & Go #488,Springfield,MO,65803,37.252137,-93.311725,34263,False,"(-93.311725, 37.252137)",Greene
751,E85,Kum & Go #489,Springfield,MO,65807,37.160712,-93.36229,34264,False,"(-93.36229, 37.160712)",Greene
752,E85,Kum & Go #566,Springfield,MO,65803,37.253332,-93.311509,34265,False,"(-93.311509, 37.253332)",Greene
753,E85,Kum & Go #368,Omaha,NE,68116,41.295111,-96.176825,34267,True,"(-96.176825, 41.295111)",Douglas
754,E85,Kum & Go #374,Papillion,NE,68128,41.17586,-96.080236,34268,True,"(-96.080236, 41.17586)",Sarpy
755,E85,Kum & Go #880,Lone Chimney,OK,74058,36.224779999999996,-96.79679200000001,34269,False,"(-96.79679200000001, 36.224779999999996)",Pawnee
756,E85,Pacific Fuel,Elk Grove,CA,95624,38.409248,-121.367403,34271,False,"(-121.367403, 38.409248)",Sacramento
757,E85,Pearson Fuels - Tooley Shell,Sacramento,CA,95816,38.576622,-121.466554,34272,False,"(-121.466554, 38.576622)",Sacramento
758,E85,Kum & Go #912,Conifer,CO,80433,39.493384999999996,-105.34948899999999,34275,False,"(-105.34948899999999, 39.493384999999996)",Jefferson
759,E85,Kum & Go #292,Ankeny,IA,50023,41.74678,-93.599488,34276,False,"(-93.599488, 41.74678)",Polk
760,E85,Kum & Go #301,Clear Lake,IA,50428,43.144769000000004,-93.364485,34277,True,"(-93.364485, 43.144769000000004)",Cerro Gordo
761,E85,Kum & Go #4110,Des Moines,IA,50317,41.615759000000004,-93.57875,34278,True,"(-93.57875, 41.615759000000004)",Polk
762,E85,Kum & Go #570,Johnston,IA,50131,41.682385,-93.69831500000001,34279,True,"(-93.69831500000001, 41.682385)",Polk
763,E85,Kum & Go #412,Bentonville,AR,72712,36.336712,-94.253495,34280,False,"(-94.253495, 36.336712)",Benton
764,E85,Kum & Go #402,Lowell,AR,72745,36.255159,-94.15440600000001,34281,False,"(-94.15440600000001, 36.255159)",Benton
765,E85,Kum & Go #406,Springdale,AR,72764,36.18855,-94.116725,34282,False,"(-94.116725, 36.18855)",Washington
766,E85,Kum & Go #267,Tipton,IA,52772,41.647602,-91.115036,34283,True,"(-91.115036, 41.647602)",Cedar
767,E85,Pearson Fuels - A&A Gas,Fairfield,CA,94534,38.251397999999995,-122.069787,34288,False,"(-122.069787, 38.251397999999995)",Solano
768,E85,Spinx #125,Piedmont,SC,29673,34.729799,-82.389422,34293,False,"(-82.389422, 34.729799)",Greenville
769,E85,Spinx #162,Spartanburg,SC,29301,34.936175,-81.989612,34294,False,"(-81.989612, 34.936175)",Spartanburg
770,E85,Spinx #243,Spartanburg,SC,29301,34.923218,-81.976625,34295,False,"(-81.976625, 34.923218)",Spartanburg
771,E85,Mother Hubbard's,Davenport,IA,52806,41.595781,-90.615391,34298,False,"(-90.615391, 41.595781)",Scott
772,E85,Shell - North Spring,Atlanta,GA,30328,33.954884,-84.364356,34302,False,"(-84.364356, 33.954884)",Fulton
773,E85,Pearson Fuels - Arco AM/PM,Woodland,CA,95776,38.675874,-121.729056,34306,False,"(-121.729056, 38.675874)",Yolo
774,E85,Meijer Gas #56,Jackson,MI,49202,42.255956,-84.359414,34339,False,"(-84.359414, 42.255956)",Jackson
775,E85,Meijer Gas #123,Southgate,MI,48195,42.190859,-83.184388,34345,False,"(-83.184388, 42.190859)",Wayne
776,E85,Zazz,St. Clair Shores,MI,48080,42.455071999999994,-82.912233,34346,False,"(-82.912233, 42.455071999999994)",Macomb
777,E85,Sunoco - Wixom Sun Fuel Center,Wixom,MI,48393,42.50175,-83.53513199999999,34349,False,"(-83.53513199999999, 42.50175)",Oakland
778,E85,Meijer Gas #316,Battle Creek,MI,49015,42.295154,-85.234495,34351,False,"(-85.234495, 42.295154)",Calhoun
779,E85,Shell - Blogett Oil Co Store,Clare,MI,48617,43.837559999999996,-84.76899999999999,34354,False,"(-84.76899999999999, 43.837559999999996)",Clare
780,E85,BP,Fenton,MI,48430,42.7901,-83.736334,34358,False,"(-83.736334, 42.7901)",Genesee
781,E85,Meijer Gas #250,Gaylord,MI,49735,45.024491999999995,-84.72331899999999,34359,False,"(-84.72331899999999, 45.024491999999995)",Otsego
782,E85,Algona Classic Stop,Algona,IA,50511,43.063375,-94.226535,34369,False,"(-94.226535, 43.063375)",Kossuth
783,E85,Clarinda Co-op,Clarinda,IA,51632,40.733443,-95.018681,34370,True,"(-95.018681, 40.733443)",Page
784,E85,Express Lane,Davenport,IA,52806,41.557112,-90.629319,34371,False,"(-90.629319, 41.557112)",Scott
785,E85,Holstein Renewable Energy Center - First Co-op,Holstein,IA,51025,42.491039,-95.54490899999999,34373,True,"(-95.54490899999999, 42.491039)",Ida
786,E85,Don's Motor Mart,Lake Mills,IA,50450,43.418876000000004,-93.536381,34375,True,"(-93.536381, 43.418876000000004)",Winnebago
787,E85,Aspinwall Co-op,Manning,IA,51455,41.907109000000005,-95.072653,34376,True,"(-95.072653, 41.907109000000005)",Carroll
788,E85,Kum & Go #503,Marion,IA,52302,42.034715999999996,-91.576963,34377,True,"(-91.576963, 42.034715999999996)",Linn
789,E85,Agriland Fast Stop,Washington,IA,52353,41.296644,-91.708372,34379,False,"(-91.708372, 41.296644)",Washington
790,E85,Pearson Fuels - Shell - 7-Eleven,Rancho Cordova,CA,95670,38.61515,-121.268767,34806,False,"(-121.268767, 38.61515)",Sacramento
791,E85,Pacific Pride - Interstate Oil Co,West Sacramento,CA,95691,38.577106,-121.55198999999999,34809,False,"(-121.55198999999999, 38.577106)",Yolo
792,E85,Pacific Pride - Interstate Oil Co,Vacaville,CA,95688,38.397474,-121.953915,34812,False,"(-121.953915, 38.397474)",Solano
793,E85,Carlie C's IGA,Benson,NC,27504,35.37782,-78.553713,34826,False,"(-78.553713, 35.37782)",Johnston
794,E85,Fischer's Market,Spring Branch,TX,78070,29.850858000000002,-98.40926400000001,34827,False,"(-98.40926400000001, 29.850858000000002)",Comal
795,E85,Kwik Trip #491,Manitowoc,WI,54220,44.073215999999995,-87.700174,34833,False,"(-87.700174, 44.073215999999995)",Manitowoc
796,E85,Kwik Trip #742,Oshkosh,WI,54901,44.043494,-88.54357900000001,34835,False,"(-88.54357900000001, 44.043494)",Winnebago
797,E85,Viking Express Mart,Reedsburg,WI,53959,43.532932,-89.983919,34836,False,"(-89.983919, 43.532932)",Sauk
798,E85,Eden Corner Express,Eden,WI,53019,43.691101,-88.368713,34842,True,"(-88.368713, 43.691101)",Fond du Lac
799,E85,The Station - Francois Oil Co,Janesville,WI,53548,42.67877,-89.05234899999999,34846,False,"(-89.05234899999999, 42.67877)",Rock
800,E85,Lena Fast Stop,Lena,WI,54139,44.950727,-88.04639,34847,False,"(-88.04639, 44.950727)",Oconto
801,E85,Kwik Trip #633,Eau Claire,WI,54701,44.770755,-91.462562,34848,False,"(-91.462562, 44.770755)",Eau Claire
802,E85,Badger State Ethanol Smart Station,Platteville,WI,53818,42.73239433,-90.45745673,35002,True,"(-90.45745673, 42.73239433)",Grant
803,E85,McClure Oil #32,Peru,IN,46970,40.74572,-86.091652,35005,False,"(-86.091652, 40.74572)",Miami
804,E85,McClure Oil #4,Marion,IN,46953,40.534380999999996,-85.658446,35006,False,"(-85.658446, 40.534380999999996)",Grant
805,E85,Exxon - Zoomerz #67,Kingston,TN,37763,35.879740000000005,-84.508911,35025,False,"(-84.508911, 35.879740000000005)",Roane
806,E85,Pearson Fuels - Phillips 76,Perris,CA,92570,33.841,-117.25447,35027,False,"(-117.25447, 33.841)",Riverside
807,E85,Marshall PS Food Mart - Citgo,Marshall,MI,49068,42.272263,-84.976293,35042,False,"(-84.976293, 42.272263)",Calhoun
808,E85,Interstate PS Food Mart - Citgo,Battle Creek,MI,49017,42.2982,-85.082257,35043,False,"(-85.082257, 42.2982)",Calhoun
809,E85,Airport Mart - Mobil,Milwaukee,WI,53207,42.935798999999996,-87.910313,35078,False,"(-87.910313, 42.935798999999996)",Milwaukee
810,E85,Kwik Trip #436,Waukesha,WI,53186,42.994746,-88.201575,35080,False,"(-88.201575, 42.994746)",Waukesha
811,E85,Petro America,Wichita,KS,67203,37.69527,-97.37562199999999,35085,False,"(-97.37562199999999, 37.69527)",Sedgwick
812,E85,Pearson Fuels - Circle K,Farmington,CA,95236,37.930846,-121.00139399999999,35094,False,"(-121.00139399999999, 37.930846)",San Joaquin
813,E85,Kwik Trip #485,Elkhorn,WI,53121,42.694575,-88.54249,35095,False,"(-88.54249, 42.694575)",Walworth
814,E85,Kwik Trip #725,Howard,WI,54313,44.552296000000005,-88.08596,35096,False,"(-88.08596, 44.552296000000005)",Brown
815,E85,Kwik Trip #761,La Crosse,WI,54601,43.808392,-91.24974399999999,35097,False,"(-91.24974399999999, 43.808392)",La Crosse
816,E85,Pearson Fuels - Foothill Chevron,Pomona,CA,91767,34.107553,-117.74914799999999,35098,False,"(-117.74914799999999, 34.107553)",Los Angeles
817,E85,Pearson Fuels - Chevron,San Jose,CA,95112,37.364061,-121.892036,35099,False,"(-121.892036, 37.364061)",Santa Clara
818,E85,Pearson Fuels - Oak Valley Chevron,Beaumont,CA,92223,33.947057,-116.970545,35100,False,"(-116.970545, 33.947057)",Riverside
819,E85,Get N Go #18,Sioux Falls,SD,57106,43.500541999999996,-96.79397800000001,35111,False,"(-96.79397800000001, 43.500541999999996)",Minnehaha
820,E85,Kwik Trip #367,Fox Lake,WI,53933,43.567014,-88.91618299999999,35113,False,"(-88.91618299999999, 43.567014)",Dodge
821,E85,Green Mount MotoMart,Shiloh,IL,62269,38.570958000000005,-89.965778,35115,False,"(-89.965778, 38.570958000000005)",St. Clair
822,E85,Fuel 24 - Annawan,Annawan,IL,61234,41.401123999999996,-89.904588,35119,False,"(-89.904588, 41.401123999999996)",Henry
823,E85,Han Dee Mart,Caseyville,IL,62232,38.640715,-90.021213,35122,False,"(-90.021213, 38.640715)",St. Clair
824,E85,Kwik Trip #330,Belle Plaine,MN,56011,44.623020000000004,-93.756478,35187,False,"(-93.756478, 44.623020000000004)",Scott
825,E85,Mighty Joe's Gas Station,Shamong,NJ,8088,39.810352,-74.73695699999999,35203,False,"(-74.73695699999999, 39.810352)",Burlington
